,City,Lat,Lng,Max Temp,Humidity,Cloudiness,Wind Speed,Country,Date
0,Chapais,49.7834,-74.8492,55.18,93,0,5.7,CA,1628145826
1,Bandarbeyla,9.4942,50.8122,87.21,50,21,27.96,SO,1628145826
2,Mar del Plata,-38.0023,-57.5575,46.09,30,90,10.0,AR,1628145584
3,Dikson,73.5069,80.5464,48.58,84,14,5.68,RU,1628145546
4,Busselton,-33.65,115.3333,64.04,63,0,4.36,AU,1628145827
5,Rikitea,-23.1203,-134.9692,73.31,74,8,18.12,PF,1628145827
6,Leningradskiy,69.3833,178.4167,41.49,89,100,2.21,RU,1628145827
7,Punta Arenas,-53.15,-70.9167,39.31,87,0,3.44,CL,1628145268
8,Buchanan,5.8808,-10.0467,76.96,84,100,10.51,LR,1628145828
9,Beringovskiy,63.05,179.3167,47.5,87,100,31.23,RU,1628145642
10,Hithadhoo,-0.6,73.0833,81.57,76,74,6.4,MV,1628145320
11,Garden City,42.3256,-83.331,66.97,90,90,0.0,US,1628145829
12,Koumac,-20.5667,164.2833,69.78,81,94,8.75,NC,1628145297
13,Jamestown,42.097,-79.2353,60.37,71,100,2.93,US,1628145175
14,Canmore,51.0834,-115.3521,60.91,97,8,0.0,CA,1628145829
15,Nome,64.5011,-165.4064,60.17,82,90,18.41,US,1628145299
16,Ushuaia,-54.8,-68.3,47.86,66,40,16.11,AR,1628145269
17,Torbay,47.6666,-52.7314,60.58,80,90,10.36,CA,1628145282
18,Sørland,67.667,12.6934,55.26,94,75,9.22,NO,1628145830
19,Cockburn Town,21.4612,-71.1419,82.81,77,100,18.63,TC,1628145312
20,Hermanus,-34.4187,19.2345,55.8,90,19,4.74,ZA,1628145282
21,Fonte Boa,-2.4959,-66.2662,71.67,96,100,3.15,BR,1628145831
22,Emerald,-23.5333,148.1667,71.35,23,71,8.05,AU,1628145831
23,Biabou,13.2,-61.1333,78.89,75,0,8.34,VC,1628145831
24,Okhotsk,59.3833,143.3,60.44,65,57,7.2,RU,1628145264
25,Mataura,-46.1927,168.8643,44.47,91,81,1.39,NZ,1628145296
26,Qaanaaq,77.484,-69.3632,40.15,67,15,6.87,GL,1628145272
27,Camargo,27.6667,-105.1667,72.64,68,17,5.68,MX,1628145832
28,Kapaa,22.0752,-159.319,80.92,78,40,5.01,US,1628145277
29,Santo Tomas,14.1079,121.1414,89.55,60,88,14.05,PH,1628145833
30,Barrow,71.2906,-156.7887,48.22,81,1,10.36,US,1628145283
31,Dauriya,49.9333,116.8667,71.67,57,98,10.04,RU,1628145833
32,Saint-Philippe,-21.3585,55.7679,71.22,78,57,16.22,RE,1628145279
33,Hasaki,35.7333,140.8333,88.2,76,7,8.48,JP,1628145406
34,Tiksi,71.6872,128.8694,44.65,77,16,11.18,RU,1628145294
35,Snezhnogorsk,69.1933,33.2531,53.38,60,9,19.39,RU,1628145286
36,Andenes,69.3143,16.1194,54.07,93,75,9.22,NO,1628145834
37,Cherskiy,68.75,161.3,48.34,73,100,15.82,RU,1628145295
38,Vestmannaeyjar,63.4427,-20.2734,55.6,84,99,6.06,IS,1628145313
39,Esim,4.8699,-2.2405,75.83,85,76,7.47,GH,1628145835
40,Lage,51.9922,8.793,61.99,96,100,1.21,DE,1628145835
41,Itacoatiara,-3.1431,-58.4442,74.64,86,71,1.28,BR,1628145836
42,Malindi,-3.2175,40.1191,78.96,73,75,11.5,KE,1628145782
43,Tautira,-17.7333,-149.15,77.02,76,12,10.4,PF,1628145031
44,Makuyuni,-4.7333,38.1,76.48,52,10,7.49,TZ,1628145836
45,Bredasdorp,-34.5322,20.0403,55.27,88,75,11.5,ZA,1628145272
46,Port Blair,11.6667,92.75,84.25,79,83,21.92,IN,1628145337
47,Nyurba,63.2842,118.3319,84.18,24,99,9.46,RU,1628145837
48,Cidreira,-30.1811,-50.2056,58.12,95,100,7.67,BR,1628145275
49,Belmonte,-15.8631,-38.8828,66.7,85,100,12.26,BR,1628145838
50,Saskylakh,71.9167,114.0833,71.56,25,15,15.48,RU,1628145281
51,Arraial do Cabo,-22.9661,-42.0278,66.34,78,29,6.15,BR,1628145270
52,Cape Town,-33.9258,18.4232,56.26,94,90,3.0,ZA,1628145174
53,Shar,49.5886,81.0453,78.58,33,100,14.5,KZ,1628145839
54,Ponta do Sol,32.6667,-17.1,76.01,83,6,2.04,PT,1628145273
55,Kavaratti,10.5669,72.642,82.51,81,100,19.73,IN,1628145839
56,East London,-33.0153,27.9116,63.54,94,20,4.61,ZA,1628145062
57,Tuktoyaktuk,69.4541,-133.0374,50.58,57,95,13.35,CA,1628145338
58,Shenjiamen,29.9576,122.298,81.79,85,51,15.1,CN,1628145840
59,Severo-Yeniseyskiy,60.3725,93.0408,76.1,41,100,6.24,RU,1628145840
60,Yar-Sale,66.8333,70.8333,73.92,49,93,7.49,RU,1628145335
61,Albany,42.6001,-73.9662,61.88,89,0,1.07,US,1628145042
62,Villarrobledo,39.2699,-2.6012,71.78,33,0,3.96,ES,1628145841
63,Avarua,-21.2078,-159.775,71.65,83,75,2.3,CK,1628145273
64,São Jerônimo,-29.9592,-51.7222,57.0,97,100,3.47,BR,1628145841
65,Keti Bandar,24.1447,67.4497,84.09,73,100,18.72,PK,1628145842
66,Vardø,70.3705,31.1107,53.8,76,40,20.71,NO,1628145318
67,Yellowknife,62.456,-114.3525,52.32,82,90,3.44,CA,1628145286
68,Touros,-5.1989,-35.4608,72.5,82,91,14.61,BR,1628145384
69,Vaini,-21.2,-175.2,66.36,88,20,3.44,TO,1628145282
70,Lebu,-37.6167,-73.65,52.43,83,100,14.27,CL,1628145274
71,São Filipe,14.8961,-24.4956,77.54,89,100,7.74,CV,1628145304
72,Sterling,39.0062,-77.4286,65.79,89,1,0.0,US,1628145843
73,Praia da Vitória,38.7333,-27.0667,73.65,83,75,9.69,PT,1628145284
74,Sungai Penuh,-2.0833,101.3833,74.5,65,99,3.8,ID,1628145402
75,Taksimo,56.3444,114.8794,76.68,37,17,2.42,RU,1628145769
76,Vidim,56.4088,103.1106,78.57,34,100,7.96,RU,1628145844
77,Motygino,58.1831,94.7592,76.21,58,93,4.0,RU,1628145845
78,Sola,-13.8833,167.55,75.87,100,75,0.0,VU,1628145290
79,Klaksvík,62.2266,-6.589,54.52,97,100,8.19,FO,1628145308
80,Iqaluit,63.7506,-68.5145,42.53,81,75,5.99,CA,1628145312
81,Port Alfred,-33.5906,26.891,64.99,85,79,13.18,ZA,1628145272
82,San Quintín,30.4833,-115.95,68.04,88,31,11.32,MX,1628145330
83,Butaritari,3.0707,172.7902,83.55,65,19,7.65,KI,1628145282
84,Hobart,-42.8794,147.3294,56.26,55,40,1.99,AU,1628145005
85,Port Lincoln,-34.7333,135.8667,57.33,73,100,12.24,AU,1628145846
86,Oussouye,12.485,-16.5469,82.49,87,100,9.48,SN,1628145351
87,Caconda,-13.7333,15.0667,62.58,28,5,5.93,AO,1628145846
88,Makakilo City,21.3469,-158.0858,79.12,62,1,6.91,US,1628145847
89,Diepholz,52.6,8.3667,60.87,93,75,2.3,DE,1628145847
90,Fortuna,40.5982,-124.1573,55.92,73,90,1.01,US,1628145338
91,Samarai,-10.6167,150.6667,78.64,67,100,14.97,PG,1628145847
92,Faanui,-16.4833,-151.75,79.66,68,6,8.97,PF,1628145298
93,Amapá,1.0,-52.0,69.24,100,32,2.42,BR,1628145848
94,Necochea,-38.5473,-58.7368,46.04,74,0,11.36,AR,1628145848
95,Chumikan,54.7183,135.315,52.79,98,100,13.6,RU,1628145849
96,Gorontalo,0.5412,123.0595,85.35,72,100,5.93,ID,1628145849
97,Shitkino,56.3703,98.3543,78.3,52,100,5.46,RU,1628145850
98,Katsuura,35.1333,140.3,91.51,77,28,10.13,JP,1628145356
99,Bengkulu,-3.8004,102.2655,82.47,71,100,7.52,ID,1628145323
100,Lompoc,34.6391,-120.4579,64.08,86,90,5.75,US,1628145313
101,Lata,40.1629,-8.3327,63.05,81,7,2.55,PT,1628145403
102,Sabinas,27.85,-101.1167,79.83,72,20,4.18,MX,1628145599
103,Irbit,57.6705,63.071,82.71,53,67,5.08,RU,1628145851
104,Hibbing,47.4272,-92.9377,67.35,72,1,0.0,US,1628145851
105,Cabo San Lucas,22.8909,-109.9124,82.51,62,100,5.01,MX,1628145343
106,Bluff,-46.6,168.3333,44.8,74,47,1.16,NZ,1628145286
107,Mathbaria,22.2876,89.9593,91.08,63,94,5.03,BD,1628145852
108,Berbera,10.4396,45.0143,95.31,32,7,25.97,SO,1628145852
109,Korla,41.7597,86.1469,95.2,16,7,10.56,CN,1628145283
110,Chamonix,45.9238,6.8693,59.81,91,83,3.94,FR,1628145853
111,Am Timan,11.0297,20.2827,78.37,81,71,5.7,TD,1628145417
112,Camacha,33.0833,-16.3333,72.54,88,75,10.36,PT,1628145365
113,Ixtapa,20.7,-105.2,78.22,97,99,2.84,MX,1628145853
114,Airai,-8.9266,125.4092,66.49,69,97,4.81,TL,1628145270
115,Alofi,-19.0595,-169.9187,67.89,88,100,5.75,NU,1628145854
116,New Norfolk,-42.7826,147.0587,54.91,59,98,3.0,AU,1628145323
117,Severnyy-Kospashskiy,59.0925,57.8008,72.77,75,89,7.83,RU,1628145854
118,Pevek,69.7008,170.3133,40.32,90,99,18.19,RU,1628145276
119,Acaraú,-2.8856,-40.12,75.54,85,34,13.09,BR,1628145138
120,Pāvilosta,56.8879,21.1859,66.15,59,72,8.03,LV,1628145855
121,Pacific Grove,36.6177,-121.9166,60.15,92,90,1.01,US,1628145291
122,Palauig,15.435,119.9045,82.15,86,98,19.19,PH,1628145855
123,Mehamn,71.0357,27.8492,51.71,83,24,16.71,NO,1628145287
124,Vila Velha,-20.3297,-40.2925,66.15,88,75,12.66,BR,1628145583
125,Puerto Ayora,-0.7393,-90.3518,71.55,82,27,3.0,EC,1628145276
126,Nikolskoye,59.7035,30.7861,64.8,49,100,1.99,RU,1628145292
127,Xining,36.6167,101.7667,76.86,37,43,5.19,CN,1628145856
128,Lebanon,36.2081,-86.2911,67.8,87,20,0.0,US,1628145806
129,Bonthe,7.5264,-12.505,75.31,92,100,5.46,SL,1628145857
130,Nantucket,41.2835,-70.0995,71.96,96,100,12.03,US,1628145568
131,Thompson,55.7435,-97.8558,42.96,81,75,3.44,CA,1628145006
132,Abalak,58.1286,68.5944,77.65,46,100,4.25,RU,1628145858
133,Clyde River,70.4692,-68.5914,35.83,93,90,6.91,CA,1628145299
134,Viedma,-40.8135,-62.9967,55.11,42,6,19.84,AR,1628145858
135,Broome,42.2506,-75.833,59.67,86,0,1.01,US,1628145354
136,Mount Gambier,-37.8333,140.7667,53.51,94,75,13.8,AU,1628145355
137,Laas,46.6166,10.7002,56.7,94,69,7.14,IT,1628145859
138,Morón,-34.6534,-58.6198,48.96,98,0,5.01,AR,1628145329
139,Hilo,19.7297,-155.09,73.13,90,90,3.44,US,1628145064
140,Hämeenlinna,60.996,24.4643,60.06,46,9,2.55,FI,1628145860
141,Chifeng,42.2683,118.9636,82.81,42,21,15.28,CN,1628145389
142,Khatanga,71.9667,102.5,78.4,21,32,14.23,RU,1628145357
143,Rūdbār,30.15,62.6,103.37,9,1,28.5,AF,1628145860
144,Sooke,48.3746,-123.7276,69.44,58,1,37.98,CA,1628145861
145,Polson,47.6936,-114.1632,71.74,55,0,3.65,US,1628145861
146,Santa Marta,11.2408,-74.199,83.98,71,100,6.55,CO,1628145722
147,Laguna,38.421,-121.4238,74.64,76,1,4.0,US,1628145862
148,Codrington,-38.2667,141.9667,53.24,86,100,14.41,AU,1628145384
149,Ribeira Grande,38.5167,-28.7,70.2,83,20,5.75,PT,1628145331
150,Kiryat Gat,31.61,34.7642,97.39,26,0,4.74,IL,1628145782
151,Mossamedes,-15.1961,12.1522,74.97,50,11,6.44,AO,1628145414
152,Omboué,-1.5746,9.2618,77.32,72,82,8.01,GA,1628145331
153,Hastings,50.8552,0.5729,63.28,89,59,8.9,GB,1628145265
154,Atakpamé,7.5333,1.1333,69.89,97,100,2.82,TG,1628145863
155,Ponta Delgada,37.7333,-25.6667,72.32,78,75,4.61,PT,1628145414
156,Grindavik,63.8424,-22.4338,53.56,100,75,2.3,IS,1628145411
157,Bodden Town,19.2833,-81.25,82.0,82,19,3.0,KY,1628145864
158,Ambovombe,-25.1667,46.0833,69.75,55,0,5.19,MG,1628145369
159,Grand Gaube,-20.0064,57.6608,73.8,54,0,10.0,MU,1628145102
160,Carnarvon,-24.8667,113.6333,80.67,30,0,13.8,AU,1628145291
161,Nexø,55.0607,15.1306,66.29,62,0,9.75,DK,1628145864
162,Juneau,58.3019,-134.4197,61.21,94,90,9.22,US,1628145770
163,Talcahuano,-36.7167,-73.1167,53.28,82,90,12.66,CL,1628145242
164,Salinópolis,-0.6136,-47.3561,77.79,84,11,7.87,BR,1628145865
165,Sitka,57.0531,-135.33,60.69,82,90,10.36,US,1628145281
166,Mocuba,-16.8392,36.9856,73.72,61,0,3.38,MZ,1628145866
167,Aykhal,66.0,111.5,72.14,30,10,16.6,RU,1628145196
168,Diamantino,-14.4086,-56.4461,64.35,48,97,2.89,BR,1628145866
169,Mapiripán,2.8892,-72.1256,71.01,93,100,1.79,CO,1628145867
170,Walsrode,52.8667,9.6,63.55,88,100,5.75,DE,1628145867
171,Geraldton,-28.7667,114.6,71.13,49,0,8.05,AU,1628145373
172,Wāliṅ,27.9833,83.7667,79.45,78,100,1.28,NP,1628145867
173,Atuona,-9.8,-139.0333,77.65,68,10,11.99,PF,1628144991
174,Maceió,-9.6658,-35.7353,69.24,100,90,10.36,BR,1628145859
175,Arlit,18.7369,7.3853,89.64,39,8,13.56,NE,1628145868
176,Fort Nelson,58.8053,-122.7002,62.19,88,90,3.44,CA,1628145148
177,Urengoy,65.9667,78.3667,77.59,46,12,7.94,RU,1628145868
178,Bilma,18.6853,12.9164,92.3,33,5,13.51,NE,1628145318
179,Fredericksburg,38.3032,-77.4605,66.11,89,1,0.0,US,1628145665
180,Vryheid,-27.7695,30.7917,63.3,27,0,3.38,ZA,1628145869
181,Maunabo,18.0072,-65.8993,80.71,97,36,9.33,PR,1628145869
182,Upernavik,72.7868,-56.1549,44.76,72,14,0.49,GL,1628145311
183,Pasān,22.85,82.2,83.12,68,100,6.11,IN,1628145870
184,Tsabong,-26.0217,22.401,62.19,30,7,15.57,BW,1628145871
185,Guachucal,0.9609,-77.7316,43.72,90,99,7.74,CO,1628145871
186,Kyabram,-36.3167,145.05,55.87,75,100,10.22,AU,1628145871
187,Cap Malheureux,-19.9842,57.6142,73.89,56,1,8.99,MU,1628145872
188,Veinticinco de Mayo,-35.4323,-60.1727,44.06,99,0,3.0,AR,1628145872
189,Souillac,-20.5167,57.5167,73.78,56,20,14.97,MU,1628145367
190,Lavrentiya,65.5833,-171.0,52.63,91,74,5.28,RU,1628145872
191,Monticello,45.3055,-93.7941,73.44,69,40,0.0,US,1628145873
192,Lázaro Cárdenas,17.9583,-102.2,78.87,88,100,5.64,MX,1628145873
193,Teahupoo,-17.8333,-149.2667,71.56,75,13,8.63,PF,1628145874
194,Castro,-24.7911,-50.0119,50.45,91,100,9.91,BR,1628145281
195,Peleduy,59.6289,112.7406,75.34,42,96,2.08,RU,1628145874
196,Maple Creek,49.9168,-109.4848,68.41,59,74,4.61,CA,1628145875
197,Conceição do Araguaia,-8.2578,-49.2647,69.93,60,0,6.91,BR,1628145719
198,Pemba,-12.974,40.5178,74.1,83,20,8.05,MZ,1628145875
199,Ngorongoro,-3.2397,35.4875,57.42,63,64,6.55,TZ,1628145875
200,Soyo,-6.1349,12.3689,68.05,76,82,8.01,AO,1628145876
201,Bouna,9.2667,-3.0,71.29,95,100,6.08,CI,1628145876
202,Bom Jesus,-9.0744,-44.3586,64.74,66,6,1.83,BR,1628145877
203,Lorengau,-2.0226,147.2712,83.35,72,41,5.06,PG,1628145392
204,Dicabisagan,17.0818,122.4157,93.34,55,70,14.25,PH,1628145877
205,Turaif,31.6725,38.6637,89.85,25,0,11.5,SA,1628145878
206,Lábrea,-7.2586,-64.7981,73.69,49,92,3.29,BR,1628145878
207,Zhigansk,66.7697,123.3711,75.69,22,5,9.64,RU,1628145878
208,Skjervøy,70.0311,20.9714,51.98,84,100,9.33,NO,1628145879
209,Aden,12.7794,45.0367,84.25,76,3,16.78,YE,1628145879
210,Bethel,41.3712,-73.414,66.49,85,90,3.44,US,1628145306
211,Skibbereen,51.55,-9.2667,60.6,93,100,13.33,IE,1628145880
212,Gloversville,43.0528,-74.3438,60.53,95,1,4.61,US,1628145880
213,Haines Junction,60.7522,-137.5108,62.55,67,100,4.61,CA,1628145359
214,Medicine Hat,50.0501,-110.6683,69.24,67,75,2.3,CA,1628145881
215,Shingū,33.7333,135.9833,87.91,74,99,7.87,JP,1628145387
216,Sambava,-14.2667,50.1667,70.38,83,100,13.76,MG,1628145881
217,Øksfjord,70.2396,22.3479,55.47,89,100,6.78,NO,1628145881
218,Mahébourg,-20.4081,57.7,73.69,56,20,14.97,MU,1628145882
219,Tabuny,52.7773,78.7896,76.42,44,83,9.48,RU,1628145882
220,Peterhead,57.5058,-1.7981,59.11,81,100,14.83,GB,1628145883
221,Byron Bay,-28.65,153.6167,69.91,51,0,4.52,AU,1628145883
222,Ostrovnoy,68.0531,39.5131,49.5,83,100,20.33,RU,1628145328
223,Rawlins,41.7911,-107.2387,58.89,51,1,3.44,US,1628145883
224,Aklavik,68.2191,-135.0107,61.63,49,100,8.88,CA,1628145339
225,Oyama,36.3,139.8,96.82,34,2,7.43,JP,1628145884
226,Betafo,-19.8333,46.85,63.3,50,8,7.18,MG,1628145884
227,Porto Murtinho,-21.6989,-57.8825,61.3,41,97,3.96,BR,1628145885
228,Cabedelo,-6.9811,-34.8339,70.47,89,34,11.99,BR,1628145307
229,Namatanai,-3.6667,152.4333,81.19,82,49,6.67,PG,1628145885
230,Marzuq,14.4,46.4667,91.18,32,24,3.85,YE,1628145290
231,Pangnirtung,66.1451,-65.7125,43.2,95,100,2.73,CA,1628145355
232,Kota Belud,6.351,116.4305,91.26,61,14,9.4,MY,1628145662
233,Asău,46.4333,26.4,79.95,56,32,4.38,RO,1628145295
234,Kieta,-6.2167,155.6333,79.18,86,100,8.37,PG,1628145691
235,Padang,-0.9492,100.3543,87.85,65,85,5.35,ID,1628145323
236,Marrakesh,31.6315,-8.0083,68.07,64,0,5.75,MA,1628145851
237,Jiwani,25.05,61.7417,83.97,79,84,7.54,PK,1628145887
238,George Town,5.4112,100.3354,89.89,65,20,1.01,MY,1628145016
239,The Valley,18.217,-63.0578,82.26,78,19,15.68,AI,1628145887
240,São Gabriel da Cachoeira,-0.1303,-67.0892,70.45,99,100,1.1,BR,1628145888
241,Vanavara,60.34,102.2797,82.67,28,84,10.83,RU,1628145366
242,Myitkyina,25.3833,97.4,93.47,54,72,3.91,MM,1628145888
243,Kupang,-10.1667,123.5833,88.38,51,20,23.02,ID,1628145889
244,Ahipara,-35.1667,173.1667,56.26,84,0,12.64,NZ,1628145413
245,Sinaloa,25.0,-107.5,75.11,93,100,1.01,MX,1628145889
246,Dhārchula,29.85,80.5333,78.13,81,100,1.3,IN,1628145890
247,Pitiquito,30.7,-112.0833,88.93,58,60,17.07,MX,1628145890
248,Port Elizabeth,-33.918,25.5701,62.89,94,75,9.22,ZA,1628145890
249,La Rioja,42.25,-2.5,59.04,53,82,1.21,ES,1628145891
250,Carmen del Paraná,-27.2333,-56.2167,59.13,64,100,4.32,PY,1628145891
251,Isangel,-19.55,169.2667,78.91,61,40,0.0,VU,1628145892
252,Kawalu,-7.3817,108.2082,85.87,57,100,5.01,ID,1628145892
253,Aldana,0.8828,-77.701,44.35,92,99,6.42,CO,1628145892
254,Tasiilaq,65.6145,-37.6368,46.56,80,99,1.54,GL,1628145296
255,Oshikango,-17.4,15.8833,53.49,29,0,3.29,NA,1628145893
256,Kahului,20.8947,-156.47,76.84,82,40,14.97,US,1628145367
257,North Bend,43.4065,-124.2243,59.92,100,90,5.75,US,1628145893
258,Tazovsky,67.4667,78.7,69.67,56,6,4.63,RU,1628145338
259,Tāki,22.5861,88.9214,91.35,61,69,5.73,IN,1628145894
260,Ploemeur,47.7333,-3.4333,62.82,94,90,10.36,FR,1628145894
261,Brownsburg,39.8434,-86.3978,64.98,83,1,0.0,US,1628145895
262,Honningsvåg,70.9821,25.9704,49.75,87,75,6.91,NO,1628145358
263,Hauterive,46.0901,3.4459,65.16,88,97,6.49,FR,1628145895
264,Chui,-33.6971,-53.4616,49.05,97,16,4.81,UY,1628145895
265,Tavda,58.0425,65.2726,81.18,49,98,7.81,RU,1628145896
266,Saint George,37.1041,-113.5841,90.79,20,1,1.01,US,1628145130
267,Bethanien,-26.502,17.1583,56.86,36,10,4.32,NA,1628145896
268,Nakhon Si Thammarat,8.25,100.0,89.06,55,100,17.2,TH,1628145897
269,Al Bardīyah,31.7561,25.0865,89.15,49,0,13.02,LY,1628145897
270,Kruisfontein,-34.0033,24.7314,57.88,92,100,4.29,ZA,1628145897
271,Cairns,-16.9167,145.7667,77.07,56,7,17.27,AU,1628145885
272,Den Helder,52.9599,4.7593,64.38,87,71,5.01,NL,1628145898
273,Neiafu,-18.65,-173.9833,72.28,83,75,0.0,TO,1628145898
274,Oudtshoorn,-33.5907,22.2014,53.96,81,88,1.74,ZA,1628145899
275,Banjar,-8.19,114.9675,84.06,84,88,0.6,ID,1628145899
276,Masuguru,-11.3667,38.4167,78.26,55,52,3.8,TZ,1628145899
277,Lugovoy,42.9472,72.7644,92.97,19,11,8.16,KZ,1628145900
278,Norman Wells,65.282,-126.8329,55.44,71,40,6.91,CA,1628145374
279,Staryy Nadym,65.6118,72.6842,74.55,54,7,5.84,RU,1628145900
280,Severnyy,50.677,36.5532,77.04,41,0,6.71,RU,1628145901
281,Kiunga,-6.1219,141.2906,79.18,95,43,1.92,PG,1628145901
282,São João da Barra,-21.6403,-41.0511,61.79,90,22,10.27,BR,1628145904
283,Hongjiang,27.11,109.9956,97.29,44,50,11.01,CN,1628145904
284,Ilhabela,-23.7781,-45.3581,59.34,88,100,3.29,BR,1628145905
285,Alta Floresta,-9.8756,-56.0861,67.44,49,26,3.85,BR,1628145905
286,Lere,10.387,8.5726,69.24,95,75,8.57,NG,1628145906
287,Voznesen'ye,61.0106,35.4781,60.01,61,79,2.66,RU,1628145906
288,Zyryanovsk,49.7386,84.2719,78.1,32,82,13.24,KZ,1628145907
289,NEDJO,9.5046,35.5019,63.01,89,100,1.16,ET,1628145907
290,San José Iturbide,21.0,-100.3833,57.67,96,79,1.48,MX,1628145907
291,San Juan,-31.5375,-68.5364,56.21,42,0,4.63,AR,1628145908
292,Vao,-22.6667,167.4833,69.48,78,52,22.48,NC,1628145908
293,Svetlaya,46.5389,138.3297,72.09,89,91,1.36,RU,1628145908
294,Bonavista,48.6499,-53.1147,59.11,78,100,11.12,CA,1628145909
295,Bartica,6.4,-58.6167,73.72,99,39,1.28,GY,1628145909
296,Esperance,-33.8667,121.9,64.24,62,2,4.5,AU,1628145620
297,Solnechnyy,50.7214,136.6319,62.6,82,100,3.31,RU,1628145910
298,Mountain Home,43.133,-115.6912,86.74,36,40,8.05,US,1628145684
299,Taltal,-25.4,-70.4833,55.33,78,50,3.71,CL,1628145332
300,Okha,53.5739,142.9478,55.11,85,100,14.76,RU,1628145910
301,Nueva Loja,0.0847,-76.8828,66.07,92,54,2.71,EC,1628145911
302,Caraballeda,10.6112,-66.8522,78.87,83,6,2.3,VE,1628145911
303,Marawi,7.9986,124.2928,83.64,69,100,4.76,PH,1628145911
304,Weihai,37.5017,122.1136,77.9,85,100,9.28,CN,1628145912
305,Rawson,-43.3002,-65.1023,61.16,38,100,29.82,AR,1628145368
306,Ndélé,8.4109,20.6473,75.16,88,8,2.62,CF,1628145912
307,Atar,20.5169,-13.0499,86.38,20,82,10.54,MR,1628145353
308,Antalaha,-14.9003,50.2788,70.48,88,100,11.48,MG,1628145363
309,Shaunavon,49.6501,-108.4181,65.98,59,40,4.99,CA,1628145843
310,Prince Rupert,54.3161,-130.3201,59.09,100,75,4.61,CA,1628145913
311,São José da Coroa Grande,-8.8978,-35.1478,71.91,89,91,8.46,BR,1628145316
312,Show Low,34.2542,-110.0298,69.13,55,1,6.91,US,1628145913
313,Merzifon,40.8733,35.4631,76.46,57,0,1.14,TR,1628145914
314,Saint Paul Harbor,57.79,-152.4072,62.11,72,90,5.75,US,1628145319
315,Urla,38.3229,26.764,91.8,37,0,10.27,TR,1628145914
316,Partāpur,23.6,74.1667,81.93,74,100,11.72,IN,1628145915
317,Bowen,-20.0167,148.2333,70.02,48,5,17.76,AU,1628145915
318,Nuevitas,21.5453,-77.2644,72.84,86,45,1.57,CU,1628145916
319,Severo-Kuril'sk,50.6789,156.125,55.6,68,100,15.17,RU,1628145339
320,Romanovo,52.6182,81.2271,73.92,43,97,7.14,RU,1628145916
321,Pisco,-13.7,-76.2167,61.02,88,90,5.75,PE,1628145917
322,Provideniya,64.3833,-173.3,53.71,71,75,13.42,RU,1628145917
323,Kavieng,-2.5744,150.7967,83.48,74,79,6.85,PG,1628145323
324,Cayenne,4.9333,-52.3333,76.08,90,0,0.0,GF,1628145724
325,Sioux Lookout,50.1001,-91.917,68.38,94,90,0.0,CA,1628145735
326,Sechenovo,55.2244,45.8906,70.88,42,99,9.1,RU,1628145918
327,Kaitangata,-46.2817,169.8464,44.6,91,100,6.13,NZ,1628145918
328,Kurtalan,37.9272,41.7028,89.82,18,1,2.35,TR,1628145918
329,Ust-Tsilma,65.441,52.1498,65.98,43,100,8.34,RU,1628145919
330,Lagoa,39.05,-27.9833,71.98,89,2,13.65,PT,1628145329
331,Margate,51.3813,1.3862,61.7,86,100,8.19,GB,1628145919
332,Mabaruma,8.2,-59.7833,71.64,98,19,2.06,GY,1628145920
333,Shimoda,34.6667,138.95,87.1,71,28,11.3,JP,1628145920
334,Inhambane,-23.865,35.3833,58.98,100,0,3.53,MZ,1628145920
335,Tuatapere,-46.1333,167.6833,44.82,83,69,1.36,NZ,1628145921
336,Narsaq,60.9167,-46.05,44.82,85,25,2.15,GL,1628145921
337,Tessalit,20.1986,1.0114,91.4,36,7,14.03,ML,1628145921
338,Ilhéus,-14.7889,-39.0494,67.12,87,98,10.02,BR,1628145922
339,Maxixe,-23.8597,35.3472,58.82,100,0,3.4,MZ,1628145922
340,Longyearbyen,78.2186,15.6401,42.64,93,75,5.75,SJ,1628145400
341,Moose Factory,51.2585,-80.6094,73.4,68,75,9.22,CA,1628145694
342,San Patricio,28.017,-97.5169,84.09,81,100,4.72,US,1628145923
343,Hong Kong,22.2855,114.1577,85.96,90,100,13.0,HK,1628145811
344,Araçatuba,-21.2089,-50.4328,55.47,75,100,11.27,BR,1628145923
345,Dunmore Town,25.5,-76.65,82.72,78,100,15.59,BS,1628145924
346,Morgan City,29.6994,-91.2068,73.99,94,1,0.0,US,1628145924
347,Koslan,63.4564,48.8989,61.54,48,30,10.04,RU,1628145924
348,Kutum,14.2,24.6667,78.3,58,90,9.28,SD,1628145410
349,Avera,33.194,-82.5271,73.27,92,0,4.68,US,1628145382
350,Araguaçu,-12.9306,-49.8264,74.3,36,80,4.25,BR,1628145925
351,Saint-Pierre,-21.3393,55.4781,73.08,59,0,25.32,RE,1628145926
352,Ancud,-41.8697,-73.8203,51.33,87,100,22.21,CL,1628145926
353,Tateyama,34.9833,139.8667,91.42,73,23,11.25,JP,1628145926
354,Nara,34.6851,135.8049,99.91,44,0,10.4,JP,1628145397
355,Vila Franca do Campo,37.7167,-25.4333,72.01,92,49,5.57,PT,1628145927
356,Dawei,14.0833,98.2,81.7,86,97,9.22,MM,1628145927
357,Upata,8.0086,-62.3989,67.55,97,11,1.01,VE,1628145927
358,Farkhor,37.4922,69.4036,99.48,10,0,7.49,TJ,1628145928
359,San Miguel de Tucumán,-26.8241,-65.2226,53.6,62,6,5.75,AR,1628145721
360,Grafton,42.207,-71.6856,64.17,94,90,6.91,US,1628145929
361,General Roca,-39.0333,-67.5833,39.6,39,40,19.04,AR,1628145929
362,Marfino,55.7028,37.3822,69.71,56,0,6.71,RU,1628145929
363,Tall Kayf,37.0833,41.0667,102.54,12,0,9.22,TR,1628145930
364,Hudson Bay,52.85,-102.3842,57.02,99,100,3.94,CA,1628145930
365,Woodward,36.4337,-99.3904,73.72,71,1,6.91,US,1628145405
366,Matara,5.9485,80.5353,84.13,71,66,14.65,LK,1628145351
367,Vrangel',42.7297,133.0839,80.37,83,100,5.77,RU,1628145931
368,Karpathos,35.507,27.2132,84.16,84,0,25.32,GR,1628145931
369,Gulf Gate Estates,27.2517,-82.5147,82.02,76,75,1.01,US,1628145931
370,Killarney,52.05,-9.5167,59.61,96,94,4.56,IE,1628145905
371,Gizo Government Station,-8.103,156.8419,81.01,69,73,15.59,SB,1628145932
372,Bathsheba,13.2167,-59.5167,79.41,89,40,9.22,BB,1628145651
373,Dibulla,11.2725,-73.3091,77.81,83,100,6.8,CO,1628145933
374,Saldanha,-33.0117,17.9442,46.45,90,4,3.44,ZA,1628145933
375,Vidoši,43.7714,17.0283,67.51,94,100,7.31,BA,1628145933
376,Ndioum,16.5129,-14.6471,80.49,71,87,12.01,SN,1628145934
377,Keminmaa,65.8596,24.8228,62.37,59,0,5.75,FI,1628145934
378,Vysokogornyy,50.1167,139.15,66.43,85,99,1.21,RU,1628145934
379,Ascension,30.2169,-90.9001,73.99,90,1,0.0,US,1628145343
380,San Cristobal,7.7669,-72.225,62.67,95,73,3.8,VE,1628145935
381,Yulara,-25.2406,130.9889,64.24,27,5,12.66,AU,1628145935
382,Merrill,45.1805,-89.6835,65.03,98,1,0.0,US,1628145936
383,Coroatá,-4.13,-44.1242,69.28,88,16,2.15,BR,1628145936
384,Podor,16.6527,-14.9587,80.55,94,0,2.3,MR,1628145374
385,Flinders,-34.5833,150.8552,63.68,59,59,7.74,AU,1628145412
386,College,64.8569,-147.8028,75.18,57,1,5.75,US,1628145937
387,Pilar do Sul,-23.8131,-47.7164,54.36,91,100,8.32,BR,1628145937
388,Lokomotivnyy,53.0118,60.5684,90.79,29,94,10.18,RU,1628145937
389,Itoman,26.1247,127.6694,84.58,96,75,14.97,JP,1628145345
390,Inta,66.0317,60.1659,64.33,96,100,5.53,RU,1628145938
391,Kumul,42.8,93.45,98.38,7,100,6.98,CN,1628145391
392,Port Harcourt,4.7774,7.0134,78.35,82,84,3.71,NG,1628145938
393,Launceston,-41.45,147.1667,55.04,78,40,3.0,AU,1628145681
394,Ilulissat,69.2167,-51.1,42.82,87,48,0.0,GL,1628145939
395,Sakakah,29.9697,40.2064,94.57,14,3,5.1,SA,1628145939
396,Bougouni,11.417,-7.479,69.06,95,94,3.36,ML,1628145939
397,Guerrero Negro,27.9769,-114.0611,71.06,82,37,4.18,MX,1628145940
398,Havelock,34.8791,-76.9013,72.93,95,100,1.99,US,1628145940
399,Buba,11.5833,-15.0,72.34,96,100,3.56,GW,1628145940
400,Augusto Corrêa,-1.0217,-46.635,72.97,94,19,2.24,BR,1628145941
401,Scottsbluff,41.8666,-103.6672,70.92,73,1,5.75,US,1628145941
402,Markala,13.7021,-6.0659,74.7,78,100,7.43,ML,1628145942
403,Beliş,46.65,23.0333,60.64,44,98,5.73,RO,1628145942
404,Copiapó,-27.3667,-70.3333,49.69,76,0,2.55,CL,1628145942
405,Oriximiná,-1.7656,-55.8661,75.33,73,69,0.87,BR,1628145943
406,Carutapera,-1.195,-46.02,74.91,91,11,4.54,BR,1628145943
407,Shreveport,32.5251,-93.7502,73.62,87,1,4.61,US,1628145943
408,Vila,42.0304,-8.1588,53.33,60,5,3.02,PT,1628145418
409,Harrisonburg,38.4496,-78.8689,60.71,80,1,0.0,US,1628145944
410,Pueblo Nuevo,23.3833,-105.3833,56.52,93,100,2.21,MX,1628145915
411,Sussex,41.1834,-74.6663,67.48,94,1,0.0,US,1628145867
412,Tubualá,9.5167,-79.0333,77.32,80,70,5.01,PA,1628145945
413,Auriflama,-20.6856,-50.5547,56.3,66,100,10.51,BR,1628145945
414,Gisborne,-38.6533,178.0042,52.95,88,100,3.56,NZ,1628145946
415,Eureka,40.8021,-124.1637,56.19,93,66,1.99,US,1628145379
416,Kantunilkín,21.0917,-87.45,83.95,97,2,2.71,MX,1628145946
417,Chokurdakh,70.6333,147.9167,40.14,82,100,15.23,RU,1628145947
418,De-Kastri,51.4667,140.7833,58.86,95,100,3.02,RU,1628145947
419,Seoul,37.5683,126.9778,93.61,51,40,9.22,KR,1628145313
420,Xai-Xai,-25.0519,33.6442,69.13,57,0,8.05,MZ,1628145390
421,Khasan,42.4308,130.6434,80.96,70,3,8.68,RU,1628145948
422,Tommot,58.9564,126.2925,75.06,56,100,8.1,RU,1628145948
423,Giovinazzo,41.1864,16.6674,87.82,56,0,4.0,IT,1628145948
424,Ende,-8.8432,121.6623,83.77,62,39,5.84,ID,1628145949
425,Departamento de Maldonado,-34.6667,-54.9167,50.23,97,27,6.85,UY,1628145949
426,Dingle,10.9995,122.6711,88.41,62,85,16.62,PH,1628145356
427,Hamilton,39.1834,-84.5333,67.59,84,1,0.0,US,1628145950
428,Tahe,52.3333,124.7333,64.35,90,100,3.65,CN,1628145950
429,Krasnaya Gorbatka,55.8703,41.7641,71.44,39,9,3.94,RU,1628145950
430,Port-Cartier,50.0334,-66.8654,50.22,79,0,1.48,CA,1628145951
431,Ribeira Brava,32.65,-17.0667,72.23,84,6,1.63,PT,1628145951
432,Montluçon,46.3333,2.6,60.71,92,85,5.01,FR,1628145951
433,Tevriz,57.509,72.4042,76.8,44,51,4.45,RU,1628145952
434,Kajaani,64.2273,27.7285,55.45,82,100,4.61,FI,1628145952
435,Porto-Novo,6.4965,2.6036,75.56,88,100,6.29,BJ,1628145952
436,Shache,38.4167,77.2406,89.46,19,100,5.91,CN,1628145953
437,Lüderitz,-26.6481,15.1594,60.71,61,88,2.35,NA,1628145953
438,Muros,42.7762,-9.0603,65.86,91,100,10.54,ES,1628145954
439,Hay River,60.8156,-115.7999,53.58,87,75,6.91,CA,1628145762
440,Porto Santo,33.072,-16.3415,71.51,94,75,10.36,PT,1628145954
441,Srednekolymsk,67.45,153.6833,49.68,67,100,9.19,RU,1628145408
442,Malanje,-9.5402,16.341,69.55,39,0,4.47,AO,1628145955
443,Bubaque,11.2833,-15.8333,76.42,89,100,5.82,GW,1628145370
444,Tianpeng,30.9866,103.9393,84.63,55,71,4.25,CN,1628145955
445,Kabansk,52.0486,106.6528,82.89,42,6,7.36,RU,1628145955
446,Tevaitoa,-16.7833,-151.5,79.54,69,7,9.78,PF,1628145956
447,San Rafael,-34.6177,-68.3301,53.85,43,0,5.95,AR,1628145956
448,Bayir,37.2687,28.2167,82.92,20,0,5.5,TR,1628145956
449,Pizhanka,57.4604,48.542,68.97,56,6,10.36,RU,1628145957
450,Laredo,27.5064,-99.5075,82.4,78,1,6.91,US,1628145957
451,Manitouwadge,49.1215,-85.8403,66.92,78,100,8.34,CA,1628145787
452,Zhireken,52.8249,117.3076,65.1,82,100,4.0,RU,1628145958
453,Riwaka,-41.0833,173.0,53.01,91,96,1.92,NZ,1628145958
454,Verkhoyansk,67.5447,133.385,70.36,27,0,22.35,RU,1628145958
455,Comodoro Rivadavia,-45.8667,-67.5,64.26,25,0,11.5,AR,1628145959
456,Coquimbo,-29.9533,-71.3436,53.33,87,0,4.61,CL,1628145690
457,Bogandé,12.9714,-0.1436,79.11,72,100,12.62,BF,1628145959
458,Dunedin,-45.8742,170.5036,48.79,84,100,17.0,NZ,1628145792
459,Najrān,17.4924,44.1277,92.05,19,100,18.68,SA,1628145385
460,Nikolayevsk-on-Amur,53.1406,140.73,57.47,92,100,4.09,RU,1628145960
461,Castro Urdiales,43.3829,-3.2204,66.52,85,94,3.8,ES,1628145960
462,Catalina,32.5056,-110.9211,88.65,25,0,0.96,US,1628145961
463,Sulangan,11.1373,123.7228,86.16,65,100,5.3,PH,1628145401
464,Talaya,61.3833,152.75,41.31,69,100,13.04,RU,1628145704
465,Sosnovo-Ozerskoye,52.5249,111.5418,66.97,51,100,10.74,RU,1628145961
466,Ukiah,39.1502,-123.2078,58.37,95,31,3.06,US,1628145265
467,Riyadh,24.6877,46.7219,102.34,7,0,8.05,SA,1628145884
468,Waipawa,-41.4122,175.5153,50.63,93,94,5.41,NZ,1628145962
469,Karratha,-20.7377,116.8463,81.82,26,25,20.18,AU,1628145962
470,Dwārka,22.2394,68.9678,83.73,75,85,20.04,IN,1628145963
471,Algiers,36.7525,3.042,69.62,78,20,3.44,DZ,1628145693
472,Andros Town,24.7,-77.7667,78.76,74,100,12.93,BS,1628145963
473,Portland,45.5234,-122.6762,79.38,61,90,1.01,US,1628145242
474,Siemiatycze,52.4272,22.8623,59.25,79,100,6.15,PL,1628145964
475,Takoradze,4.8845,-1.7554,75.78,86,86,7.96,GH,1628145965
476,Gijang,35.2442,129.2139,96.53,69,0,6.67,KR,1628145965
477,Waitati,-45.75,170.5667,48.79,84,100,3.22,NZ,1628145965
478,Goderich,43.7501,-81.7165,62.92,82,0,5.75,CA,1628145417
479,Buseresere,-3.0236,31.8747,76.19,43,5,7.49,TZ,1628145966
480,Paamiut,61.994,-49.6678,44.87,94,100,9.01,GL,1628145966
481,Sinnamary,5.3833,-52.95,75.81,89,78,5.97,GF,1628145967
482,Central Point,42.376,-122.9164,77.13,60,90,3.44,US,1628145967
483,Birecik,37.0294,37.9903,99.61,18,1,6.06,TR,1628145967
484,Senador Pompeu,-5.5881,-39.3717,70.12,69,5,6.64,BR,1628145968
485,Harper,4.375,-7.7169,75.6,82,100,10.29,LR,1628145669
486,Bambous Virieux,-20.3428,57.7575,73.65,56,20,14.97,MU,1628145968
487,Raudeberg,61.9875,5.1352,58.96,79,100,8.08,NO,1628145968
488,Zhigalovo,54.8097,105.1578,73.47,53,100,3.62,RU,1628145969
489,Lukovetskiy,64.2956,41.9211,57.18,87,100,8.28,RU,1628145969
490,Tonantins,-2.8731,-67.8022,73.62,78,100,2.57,BR,1628145970
491,La Sarre,48.8002,-79.1996,59.83,87,0,7.43,CA,1628145970
492,Erenhot,43.6475,111.9767,76.1,33,98,13.8,CN,1628145971
493,Galesong,-5.3166,119.3661,87.82,61,83,6.46,ID,1628145971
494,Price,39.5994,-110.8107,74.46,31,1,4.61,US,1628145972
495,Forestville,38.8451,-76.875,66.33,88,1,0.0,US,1628145779
496,Kanye,-24.9667,25.3327,57.61,36,1,8.93,BW,1628145972
497,Caravelas,-17.7125,-39.2481,66.56,92,65,6.22,BR,1628145972
498,Port Augusta,-32.5,137.7667,60.71,64,100,8.1,AU,1628145973
499,Bria,6.5423,21.9863,74.66,85,98,3.31,CF,1628145973
500,Tahoua,14.8888,5.2692,82.49,61,68,9.78,NE,1628145974
501,Beloha,-25.1667,45.05,73.6,42,0,10.27,MG,1628145974
502,Innisfail,-17.5333,146.0333,69.4,57,18,9.4,AU,1628145975
503,Batemans Bay,-35.7167,150.1833,59.92,60,34,7.14,AU,1628145975
504,Kaduy,59.2,37.15,64.44,45,82,3.47,RU,1628145975
505,Salalah,17.0151,54.0924,80.69,89,90,10.36,OM,1628145976
506,Sistranda,63.7256,8.834,57.16,73,100,7.11,NO,1628145976
507,Nānākuli,21.3906,-158.1547,80.55,62,1,6.91,US,1628145977
508,Te Anau,-45.4167,167.7167,41.95,95,100,1.28,NZ,1628145415
509,Sawai Madhopur,25.9833,76.3667,86.86,64,72,7.47,IN,1628145977
510,Leh,34.1667,77.5833,68.92,27,22,6.17,IN,1628145978
511,Hualmay,-11.0964,-77.6139,62.56,88,65,8.55,PE,1628145978
512,Cilegon,-6.0174,106.0538,85.89,64,68,10.25,ID,1628145978
513,Tabou,4.423,-7.3528,75.52,83,100,9.51,CI,1628145979
514,Husavik,66.0449,-17.3389,51.71,89,87,4.65,IS,1628145979
515,Puerto Madryn,-42.7692,-65.0385,59.72,42,100,27.38,AR,1628145976
516,Kabakovo,54.5369,56.1517,77.29,65,75,11.18,RU,1628145979
517,Marsh Harbour,26.5412,-77.0636,82.51,75,12,13.67,BS,1628145980
518,Rio Grande,-32.035,-52.0986,51.94,96,100,8.12,BR,1628145385
519,Mahibadhoo,3.7833,72.9667,82.31,77,85,7.72,MV,1628145980
520,Mīnāb,27.1467,57.0801,101.7,25,0,5.5,IR,1628145980
521,Ginir,7.1333,40.7,65.89,57,62,12.03,ET,1628145981
522,Camacupa,-12.0167,17.4833,62.15,28,0,4.43,AO,1628145981
523,Bilibino,68.0546,166.4372,57.7,66,100,9.53,RU,1628145982
524,Olafsvik,64.8945,-23.7142,53.73,85,99,6.53,IS,1628145982
525,Altamira,-3.2033,-52.2064,70.63,61,9,1.05,BR,1628145982
526,Ammon,43.4696,-111.9666,66.7,61,1,6.91,US,1628145983
527,Nchelenge,-9.3451,28.734,69.98,37,0,6.51,ZM,1628145983
528,Kaduqli,11.0167,29.7167,81.99,67,47,8.7,SD,1628145984
529,San Javier,37.8063,-0.8374,79.63,75,40,5.01,ES,1628145984
530,Teguise,29.0605,-13.564,66.42,83,20,11.5,ES,1628145984
531,Duiwelskloof,-23.6934,30.14,68.09,37,0,0.36,ZA,1628145985
532,Antas,41.7364,-8.3089,60.3,74,5,0.56,PT,1628145985
533,Grande Prairie,55.1667,-118.8027,64.58,63,75,8.05,CA,1628145907
534,Berlevåg,70.8578,29.0864,51.75,71,75,14.97,NO,1628145403
535,Oddur,4.1213,43.8894,80.37,49,65,20.31,SO,1628145986
536,Ipixuna,-1.7625,-48.8043,78.75,92,31,3.11,BR,1628145986
537,Ketchikan,55.3422,-131.6461,57.67,100,90,8.05,US,1628145986
538,Henties Bay,-22.116,14.2845,53.85,72,4,4.16,NA,1628145987
539,Denpasar,-8.65,115.2167,85.66,74,20,17.27,ID,1628145772
540,Kaa-Khem,51.6833,94.7333,81.32,40,52,3.18,RU,1628145987
541,Iisalmi,63.5592,27.1907,59.02,52,100,4.23,FI,1628145988
542,Liverpool,53.4106,-2.9779,61.68,77,20,1.01,GB,1628145988
543,Pāsighāt,28.0667,95.3333,95.41,54,29,4.99,IN,1628145988
544,Perry,37.2506,-83.1999,70.52,72,58,2.66,US,1628145989
545,Flin Flon,54.7682,-101.865,53.13,61,6,4.36,CA,1628145989
546,Youhao,47.8667,128.8333,80.2,67,100,11.3,CN,1628145990
547,Emba,48.8264,58.1442,99.19,14,100,8.03,KZ,1628145990
548,San-Pédro,4.7485,-6.6363,74.08,90,80,5.97,CI,1628145705
549,Mayumba,-3.432,10.6554,73.92,85,92,6.42,GA,1628145991
550,Megion,61.0296,76.1136,66.22,62,29,4.92,RU,1628145991
551,Teya,60.3778,92.6267,78.49,42,95,6.46,RU,1628145991
552,Verkhneyarkeyevo,55.4505,54.3145,78.19,53,13,11.83,RU,1628145992
553,Saint-Augustin,51.226,-58.6502,55.54,79,0,8.41,CA,1628145789
554,Teluknaga,-6.0989,106.6381,88.63,66,75,4.61,ID,1628145993
555,Parrita,9.5201,-84.3225,81.52,87,95,1.36,CR,1628145993
556,Mugan,35.9404,101.3842,75.31,42,40,4.74,CN,1628145994
557,Colares,38.7992,-9.4469,67.78,80,20,7.0,PT,1628145994
558,Rehoboth,-23.3167,17.0833,59.14,26,3,3.44,NA,1628145994
559,Jumla,29.2747,82.1838,71.06,82,94,6.13,NP,1628145995
560,Viña del Mar,-33.0246,-71.5518,53.31,84,90,4.61,CL,1628145995
561,Toora-Khem,52.4675,96.11,80.6,38,86,2.37,RU,1628145996
562,Broken Hill,-31.95,141.4333,58.71,51,40,9.22,AU,1628145996
563,Bijie,27.3125,105.2942,82.38,51,8,6.91,CN,1628145996
564,Klyavlino,54.2649,52.0267,76.41,46,1,12.93,RU,1628145997
565,Española,35.9911,-106.0806,69.64,61,8,6.85,US,1628145926
