,City,Lat,Lng,Max Temp,Humidity,Cloudiness,Wind Speed,Country,Date
0,Saldanha,-33.0117,17.9442,44.65,86,0,3.0,ZA,1628218140
1,Eureka,40.8021,-124.1637,65.19,81,73,4.0,US,1628218141
2,Vaini,-21.2,-175.2,77.16,73,40,12.66,TO,1628218141
3,Butaritari,3.0707,172.7902,83.28,64,28,11.77,KI,1628218141
4,Vultureşti,47.5167,26.45,64.22,94,100,5.12,RO,1628218142
5,Dikson,73.5069,80.5464,50.61,89,7,5.5,RU,1628218218
6,Petropavlovsk-Kamchatskiy,53.0452,158.6483,64.99,34,75,22.37,RU,1628218218
7,Punta Arenas,-53.15,-70.9167,33.91,93,90,26.46,CL,1628218195
8,Maués,-3.3836,-57.7186,73.67,87,9,3.38,BR,1628218219
9,Ribeira Grande,38.5167,-28.7,73.31,93,45,17.38,PT,1628218219
10,Airai,-8.9266,125.4092,73.31,39,59,5.77,TL,1628217921
11,Hilo,19.7297,-155.09,82.13,79,40,10.36,US,1628218151
12,Pandan,14.0453,124.1694,90.25,59,61,12.35,PH,1628218220
13,Rikitea,-23.1203,-134.9692,74.35,74,55,14.7,PF,1628218220
14,Busselton,-33.65,115.3333,62.04,70,0,14.14,AU,1628218221
15,Touros,-5.1989,-35.4608,74.3,84,24,14.99,BR,1628218010
16,Jamestown,42.097,-79.2353,67.59,81,40,1.99,US,1628218221
17,Bandar-e Anzali,37.4727,49.4622,69.91,50,89,3.24,IR,1628218221
18,Pevek,69.7008,170.3133,39.43,93,95,6.42,RU,1628218222
19,Castro,-24.7911,-50.0119,48.18,94,100,5.84,BR,1628218222
20,Hofn,64.2539,-15.2082,52.97,88,94,1.92,IS,1628218222
21,Ronchin,50.6,3.1,61.47,89,75,1.01,FR,1628218223
22,Ushuaia,-54.8,-68.3,38.86,70,40,9.22,AR,1628218215
23,Cidreira,-30.1811,-50.2056,60.78,93,100,15.84,BR,1628218223
24,Batagay-Alyta,67.8006,130.4114,44.42,75,100,10.36,RU,1628218224
25,Hermanus,-34.4187,19.2345,54.81,79,57,10.02,ZA,1628218224
26,Fortuna,40.5982,-124.1573,69.42,67,20,1.01,US,1628218224
27,Sitka,57.0531,-135.33,62.49,77,90,5.75,US,1628218225
28,Port Blair,11.6667,92.75,83.39,82,100,19.66,IN,1628218225
29,Mataura,-46.1927,168.8643,50.49,72,71,5.03,NZ,1628218225
30,Yellowknife,62.456,-114.3525,60.3,55,75,9.22,CA,1628218226
31,Berlin,52.5244,13.4105,63.07,89,0,1.14,DE,1628218125
32,Tahe,52.3333,124.7333,60.39,94,100,3.67,CN,1628218226
33,Leningradskiy,69.3833,178.4167,40.55,90,89,8.12,RU,1628218226
34,Severo-Kuril'sk,50.6789,156.125,55.99,62,1,15.37,RU,1628218227
35,Matagami,49.7502,-77.6328,62.71,94,90,5.75,CA,1628218055
36,Taoudenni,22.6783,-3.9836,98.49,24,11,17.07,ML,1628218227
37,Ayan,56.45,138.1667,54.28,91,100,12.57,RU,1628218228
38,Padang,-0.9492,100.3543,86.05,63,98,2.82,ID,1628218228
39,São João da Barra,-21.6403,-41.0511,68.47,79,70,8.05,BR,1628218228
40,Bethel,41.3712,-73.414,70.72,89,1,0.0,US,1628218229
41,Hīt,33.6416,42.8251,97.14,17,92,10.58,IQ,1628218229
42,Yerbogachën,61.2767,108.0108,74.75,44,79,6.11,RU,1628218229
43,Port Elizabeth,-33.918,25.5701,61.09,94,75,14.97,ZA,1628218230
44,Puerto Ayora,-0.7393,-90.3518,70.56,93,67,4.0,EC,1628218230
45,Kholtoson,50.2981,103.3097,66.18,79,96,2.24,RU,1628218230
46,Tasiilaq,65.6145,-37.6368,36.03,79,2,3.98,GL,1628218231
47,Hobart,-42.8794,147.3294,60.06,52,75,8.01,AU,1628218231
48,George Town,5.4112,100.3354,87.73,74,20,1.01,MY,1628218231
49,Santa Isabel Rio Negro,-0.4139,-65.0192,71.1,98,9,3.09,BR,1628218232
50,Aklavik,68.2191,-135.0107,54.43,74,71,21.85,CA,1628218232
51,Bluff,-46.6,168.3333,50.81,77,67,14.2,NZ,1628218232
52,Bitung,1.4451,125.1824,92.25,72,100,13.47,ID,1628218233
53,Arraial do Cabo,-22.9661,-42.0278,67.78,83,49,13.29,BR,1628218233
54,Province of Mantua,45.1667,10.7833,68.95,85,99,1.01,IT,1628218233
55,Avarua,-21.2078,-159.775,77.05,61,75,4.61,CK,1628218234
56,Bengkulu,-3.8004,102.2655,83.08,69,26,1.19,ID,1628218234
57,Iqaluit,63.7506,-68.5145,42.53,75,90,5.99,CA,1628218234
58,Cape Town,-33.9258,18.4232,53.11,95,0,3.44,ZA,1628218110
59,Banjar,-8.19,114.9675,84.06,63,69,2.68,ID,1628218235
60,Port Alfred,-33.5906,26.891,61.32,86,22,11.14,ZA,1628218235
61,Birjand,32.8663,59.2211,66.67,24,0,0.0,IR,1628218236
62,Pandan Niog,6.2282,120.5631,84.47,71,24,8.08,PH,1628218236
63,Ilo,-17.6394,-71.3375,60.48,83,4,6.13,PE,1628218236
64,Lucea,18.451,-78.1736,82.26,78,74,9.01,JM,1628218237
65,Kaitangata,-46.2817,169.8464,56.93,57,19,2.98,NZ,1628218237
66,Saint-Philippe,-21.3585,55.7679,65.75,75,30,9.35,RE,1628218237
67,Bambous Virieux,-20.3428,57.7575,66.45,88,40,16.11,MU,1628218238
68,Bilibino,68.0546,166.4372,70.88,43,6,4.23,RU,1628218238
69,Whitehorse,60.7161,-135.0538,70.02,59,90,11.01,CA,1628218238
70,Bulawayo,-20.15,28.5833,50.31,51,18,4.74,ZW,1628218238
71,Albany,42.6001,-73.9662,68.61,83,0,3.56,US,1628218239
72,Barcelos,41.5388,-8.6151,64.85,92,14,3.51,PT,1628218239
73,Talnakh,69.4865,88.3972,74.77,53,84,2.01,RU,1628218240
74,Esperance,-33.8667,121.9,58.84,54,0,13.0,AU,1628218240
75,Williams Lake,52.1415,-122.1445,71.17,47,75,9.22,CA,1628218240
76,Borba,-4.3878,-59.5939,78.24,65,48,3.62,BR,1628218241
77,Fairbanks,64.8378,-147.7164,83.01,43,1,8.05,US,1628218050
78,Nouadhibou,20.931,-17.0347,69.78,88,0,17.27,MR,1628218241
79,Clyde River,70.4692,-68.5914,39.43,100,90,10.36,CA,1628218241
80,Mar del Plata,-38.0023,-57.5575,57.09,28,90,4.0,AR,1628218242
81,Mount Gambier,-37.8333,140.7667,53.51,76,75,14.97,AU,1628218242
82,Camargo,27.6667,-105.1667,77.67,53,46,8.34,MX,1628218243
83,Hambantota,6.1241,81.1185,82.74,89,40,12.66,LK,1628218243
84,Ruteng,-8.6136,120.4721,74.53,59,88,1.45,ID,1628218243
85,Carnarvon,-24.8667,113.6333,73.47,30,3,16.11,AU,1628218183
86,Englewood,39.6478,-104.9878,82.24,29,20,1.99,US,1628218244
87,Shimoda,34.6667,138.95,87.1,73,50,11.01,JP,1628218244
88,Yershov,51.3513,48.2766,66.31,50,84,6.82,RU,1628218244
89,Kigoma,-4.8769,29.6267,64.99,68,0,0.0,TZ,1628218245
90,Cayenne,4.9333,-52.3333,78.1,85,0,2.3,GF,1628218245
91,Lircay,-12.9896,-74.7205,44.08,78,5,1.48,PE,1628218245
92,Hasaki,35.7333,140.8333,93.29,71,13,8.23,JP,1628218004
93,Qaanaaq,77.484,-69.3632,41.77,66,13,5.75,GL,1628218246
94,Atuona,-9.8,-139.0333,77.97,74,22,14.67,PF,1628218246
95,Tshane,-24.0196,21.8684,53.56,41,15,9.28,BW,1628218246
96,Ponta do Sol,32.6667,-17.1,75.0,83,53,3.29,PT,1628218247
97,Derbent,42.0678,48.2899,82.9,46,3,3.27,RU,1628218247
98,Praia,14.9215,-23.5087,77.54,94,75,17.27,CV,1628218231
99,Lebu,-37.6167,-73.65,50.81,87,100,9.04,CL,1628218248
100,Elko,41.0002,-115.5012,89.62,12,31,7.0,US,1628218248
101,Saint-Joseph,-21.3667,55.6167,64.76,73,34,9.01,RE,1628218248
102,Sinnamary,5.3833,-52.95,75.61,89,40,2.59,GF,1628218249
103,Kruisfontein,-34.0033,24.7314,55.89,95,67,4.61,ZA,1628218249
104,Mareeba,-17.0,145.4333,76.44,47,77,5.73,AU,1628218249
105,Port Augusta,-32.5,137.7667,59.14,46,98,6.55,AU,1628218250
106,Zonguldak,41.25,31.8333,65.48,52,1,5.5,TR,1628218250
107,Kapaa,22.0752,-159.319,82.72,75,75,5.01,US,1628218120
108,St. George's,12.0564,-61.7485,80.28,89,20,0.0,GD,1628218149
109,Lagoa,39.05,-27.9833,72.52,92,30,20.04,PT,1628217957
110,Bairiki Village,1.3292,172.9752,87.8,58,20,11.5,KI,1628218251
111,Muros,42.7762,-9.0603,63.23,89,94,1.63,ES,1628218251
112,Senta,45.9275,20.0772,57.38,90,20,11.16,RS,1628218252
113,Motygino,58.1831,94.7592,75.83,41,66,4.14,RU,1628218252
114,Mackenzie,55.2999,-123.1698,66.42,68,1,12.66,CA,1628218252
115,Coyhaique,-45.5752,-72.0662,40.95,87,90,11.5,CL,1628218253
116,Khatanga,71.9667,102.5,72.05,30,5,12.44,RU,1628218253
117,Constitución,-35.3333,-72.4167,50.68,88,100,2.95,CL,1628218253
118,Oudtshoorn,-33.5907,22.2014,44.96,95,38,1.7,ZA,1628218254
119,Saint Paul Harbor,57.79,-152.4072,56.71,94,90,3.44,US,1628218254
120,Loralai,30.3705,68.598,80.78,44,0,5.1,PK,1628218254
121,Kavieng,-2.5744,150.7967,82.67,77,89,13.94,PG,1628218255
122,Sobolevo,54.4299,31.8996,58.78,92,100,6.26,RU,1628218255
123,Cherskiy,68.75,161.3,61.57,56,43,6.44,RU,1628218255
124,Ughelli,5.4899,6.0074,73.53,93,100,2.73,NG,1628218256
125,Kumluca,36.3703,30.2869,89.17,35,0,4.59,TR,1628218256
126,East London,-33.0153,27.9116,62.35,87,7,10.96,ZA,1628218256
127,Nihommatsu,37.5833,140.4333,95.36,60,25,2.86,JP,1628218257
128,Severo-Yeniseyskiy,60.3725,93.0408,73.04,41,29,6.64,RU,1628218257
129,Souillac,-20.5167,57.5167,66.58,88,40,16.11,MU,1628218257
130,Pahrump,36.2083,-115.9839,104.11,8,0,7.0,US,1628218258
131,Nanortalik,60.1432,-45.2371,46.65,94,100,1.25,GL,1628218258
132,Bredasdorp,-34.5322,20.0403,54.28,87,98,3.44,ZA,1628218258
133,Nabire,-3.3667,135.4833,87.33,59,17,5.35,ID,1628218259
134,Greenville,35.6127,-77.3663,73.81,91,1,0.0,US,1628218007
135,Port-Gentil,-0.7193,8.7815,77.04,79,8,10.47,GA,1628218259
136,Prudnik,50.3212,17.5746,56.95,95,100,9.22,PL,1628218259
137,Chui,-33.6971,-53.4616,55.96,96,39,9.35,UY,1628218260
138,Barrow,71.2906,-156.7887,39.22,83,90,18.41,US,1628218044
139,Loukhi,66.0764,33.0381,53.04,79,74,4.09,RU,1628218260
140,La Palma,33.8464,-118.0467,93.02,67,20,5.01,US,1628218234
141,Norman Wells,65.282,-126.8329,69.84,56,40,5.75,CA,1628218261
142,Poum,-20.2333,164.0167,69.58,61,94,22.39,NC,1628218261
143,Anadyr,64.75,177.4833,57.7,62,0,4.47,RU,1628218261
144,San Rafael,-34.6177,-68.3301,60.46,31,88,8.77,AR,1628218094
145,Ponta Delgada,37.7333,-25.6667,72.32,100,40,12.66,PT,1628218262
146,Kajaani,64.2273,27.7285,41.05,93,20,2.3,FI,1628218262
147,Sioux Lookout,50.1001,-91.917,59.38,100,90,10.36,CA,1628218263
148,Huarmey,-10.0681,-78.1522,64.56,85,12,9.37,PE,1628217993
149,Dongxing,45.3667,130.8,86.0,40,100,11.3,CN,1628218263
150,Provideniya,64.3833,-173.3,55.51,58,0,13.42,RU,1628218264
151,Manuk Mangkaw,4.8,119.85,85.28,70,85,10.16,PH,1628218264
152,Pechenga,69.5259,31.1703,50.86,76,99,6.64,RU,1628218264
153,Isangel,-19.55,169.2667,69.91,94,90,6.91,VU,1628218264
154,Vallenar,-28.5708,-70.7581,62.94,56,43,2.24,CL,1628218265
155,Hämeenlinna,60.996,24.4643,45.21,71,87,2.53,FI,1628218265
156,Pasir Gudang,1.4584,103.8805,88.0,72,75,9.22,MY,1628218266
157,Mwene-Ditu,-7.0,23.45,68.29,34,3,4.63,CD,1628218266
158,Pathein,16.7833,94.7333,78.96,88,100,7.56,MM,1628218266
159,Kavaratti,10.5669,72.642,82.4,82,100,19.89,IN,1628218267
160,San Ramon,37.7799,-121.978,72.23,73,1,1.01,US,1628218267
161,Byron Bay,-28.65,153.6167,69.87,46,38,4.59,AU,1628218029
162,Lucapa,-8.4192,20.7447,63.97,33,0,5.26,AO,1628218267
163,Faanui,-16.4833,-151.75,79.12,70,99,6.04,PF,1628218268
164,Upernavik,72.7868,-56.1549,43.43,70,21,2.24,GL,1628218268
165,Lidköping,58.5052,13.1577,56.53,87,100,6.49,SE,1628218269
166,Juneau,58.3019,-134.4197,66.2,82,75,3.44,US,1628218269
167,Hay River,60.8156,-115.7999,58.98,77,40,9.22,CA,1628218204
168,Naze,28.3667,129.4833,85.12,87,66,20.67,JP,1628218269
169,Nikolskoye,59.7035,30.7861,59.79,80,100,3.11,RU,1628218270
170,Rawson,-43.3002,-65.1023,60.57,43,100,10.45,AR,1628218270
171,Torbay,47.6666,-52.7314,66.97,73,75,14.97,CA,1628218270
172,Tura,25.5198,90.2201,81.05,91,95,5.73,IN,1628218271
173,Gogrial,8.5332,28.1004,72.27,84,78,2.82,SS,1628218271
174,Leer,8.3018,30.1418,72.09,86,98,3.22,SS,1628218271
175,Baruun-Urt,46.6806,113.2792,75.79,38,27,10.2,MN,1628218272
176,Sandpoint,48.2766,-116.5533,78.44,59,1,3.44,US,1628218146
177,Pangody,65.85,74.4859,72.82,51,29,5.14,RU,1628218272
178,Tuktoyaktuk,69.4541,-133.0374,44.6,93,90,19.57,CA,1628218272
179,Temyasovo,52.9933,58.1014,64.76,77,100,7.92,RU,1628218273
180,Darhan,49.4867,105.9228,73.54,59,52,4.36,MN,1628218273
181,Dalhousie,32.5333,75.9833,66.96,70,82,2.26,IN,1628218273
182,Susanville,40.4163,-120.653,74.08,17,1,5.99,US,1628218274
183,Forsytheganj,52.6333,29.7333,62.37,98,100,12.37,BY,1628218274
184,Astoria,46.1879,-123.8313,70.72,93,90,1.01,US,1628218274
185,Båtsfjord,70.6345,29.7185,46.62,80,94,5.79,NO,1628218275
186,Vanimo,-2.6741,141.3028,83.77,76,17,6.31,PG,1628218275
187,Batagay,67.6333,134.6333,62.56,37,6,3.31,RU,1628218275
188,Itoman,26.1247,127.6694,86.4,87,40,9.22,JP,1628218276
189,Bartica,6.4,-58.6167,77.32,97,100,0.25,GY,1628218276
190,Christchurch,-43.5333,172.6333,50.02,87,75,7.0,NZ,1628218003
191,Garoowe,8.4054,48.4845,72.48,61,68,25.88,SO,1628218277
192,Tikaitnagar,26.95,81.5833,87.37,70,97,7.09,IN,1628218277
193,Kayerkan,69.3497,87.7602,70.14,59,82,3.2,RU,1628218277
194,La Rioja,42.25,-2.5,58.78,96,42,2.55,ES,1628218278
195,Merauke,-8.4667,140.3333,81.57,65,96,7.07,ID,1628218278
196,Saint Anthony,45.0205,-93.218,79.12,78,75,1.99,US,1628218279
197,Dingle,10.9995,122.6711,89.31,58,98,15.95,PH,1628218279
198,Port Shepstone,-30.7414,30.455,61.39,80,2,6.51,ZA,1628218279
199,San Andrés,12.5847,-81.7006,84.22,79,75,10.36,CO,1628218101
200,Kūhdasht,33.535,47.6061,79.59,29,14,3.49,IR,1628218280
201,Belaya Gora,68.5333,146.4167,51.89,61,96,3.78,RU,1628218280
202,Iranshahr,27.2025,60.6848,86.34,17,0,6.91,IR,1628218281
203,Ulladulla,-35.35,150.4667,66.67,47,0,5.5,AU,1628218281
204,Sisimiut,66.9395,-53.6735,43.93,95,100,13.69,GL,1628218281
205,Kul'dur,49.2167,131.6333,67.84,97,100,5.75,RU,1628218282
206,Tuatapere,-46.1333,167.6833,50.83,75,48,6.58,NZ,1628218282
207,Paita,-5.0892,-81.1144,65.05,85,0,12.86,PE,1628218282
208,Samarai,-10.6167,150.6667,79.11,66,97,11.79,PG,1628218283
209,Baker City,44.7749,-117.8344,68.59,69,1,6.91,US,1628218283
210,Saskylakh,71.9167,114.0833,61.99,36,8,13.62,RU,1628218284
211,Half Moon Bay,37.4636,-122.4286,72.12,82,75,10.36,US,1628218096
212,Yulara,-25.2406,130.9889,60.64,36,0,16.11,AU,1628218284
213,Nandi Hills,0.1066,35.1838,52.39,85,79,3.74,KE,1628218285
214,Craig,40.5153,-107.5464,82.02,22,1,5.75,US,1628218285
215,Hithadhoo,-0.6,73.0833,80.96,72,95,5.32,MV,1628218285
216,Asău,46.4333,26.4,63.28,93,100,4.52,RO,1628218285
217,Villa Rica,33.7321,-84.9191,75.38,85,99,1.9,US,1628218286
218,Lüderitz,-26.6481,15.1594,54.39,74,35,1.41,NA,1628218286
219,Klaksvík,62.2266,-6.589,56.32,98,100,7.38,FO,1628218286
220,Botevgrad,42.9,23.7833,77.18,50,100,1.81,BG,1628218287
221,Urengoy,65.9667,78.3667,73.85,54,7,8.03,RU,1628218287
222,Piaçabuçu,-10.4056,-36.4344,71.29,84,1,6.53,BR,1628218288
223,Hobyo,5.3505,48.5268,75.51,84,60,24.79,SO,1628218288
224,Sibolga,1.7427,98.7792,85.33,63,75,2.98,ID,1628218288
225,Vao,-22.6667,167.4833,68.05,60,72,18.99,NC,1628218289
226,Akdepe,42.0551,59.3788,78.8,24,0,5.7,TM,1628218289
227,Broken Hill,-31.95,141.4333,56.91,62,75,3.44,AU,1628218289
228,Avera,33.194,-82.5271,78.67,77,91,5.1,US,1628218290
229,Tazovsky,67.4667,78.7,66.43,63,10,6.2,RU,1628218062
230,Tiksi,71.6872,128.8694,42.39,84,97,16.75,RU,1628218290
231,Adré,13.4667,22.2,75.63,69,100,1.74,TD,1628218290
232,Khandyga,62.6667,135.6,80.01,30,6,3.2,RU,1628218291
233,Paraná,-31.732,-60.5238,60.55,84,96,8.23,AR,1628218291
234,Fuerte Olimpo,-21.0415,-57.8738,68.97,27,100,3.2,PY,1628218291
235,Arequipa,-16.3989,-71.535,55.47,35,0,3.44,PE,1628218292
236,Te Anau,-45.4167,167.7167,47.64,82,39,0.96,NZ,1628218292
237,Maragogi,-9.0122,-35.2225,72.23,83,3,9.35,BR,1628218254
238,Kalga,50.9251,118.898,65.97,78,82,0.96,RU,1628218293
239,Ostrovnoy,68.0531,39.5131,52.88,77,100,2.1,RU,1628218293
240,Leh,34.1667,77.5833,60.53,47,20,6.08,IN,1628218294
241,Hong Kong,22.2855,114.1577,86.05,90,100,5.99,HK,1628218294
242,Cherëmukhovo,60.3484,59.9851,59.97,77,95,5.88,RU,1628218294
243,Nemuro,43.3236,145.575,73.83,94,95,8.39,JP,1628218295
244,Bara,10.3744,10.7288,70.38,98,94,7.54,NG,1628218295
245,Toora-Khem,52.4675,96.11,56.41,96,100,4.76,RU,1628218295
246,Guangming,45.3333,122.7833,81.05,49,9,8.5,CN,1628218296
247,Chokurdakh,70.6333,147.9167,47.73,66,97,10.25,RU,1628218296
248,Arrondissement d'Ajaccio,42.0,8.9167,70.29,73,75,4.61,FR,1628218296
249,Egvekinot,66.3167,-179.1667,48.67,89,100,1.21,RU,1628218297
250,Longyearbyen,78.2186,15.6401,41.0,84,73,6.11,SJ,1628218297
251,Saint-Louis,16.3333,-15.0,81.21,62,9,12.66,SN,1628218297
252,Bolshoy Lug,52.0779,104.0919,64.58,63,85,4.27,RU,1628218298
253,Itarema,-2.9248,-39.9167,77.31,83,10,14.88,BR,1628218298
254,Verkhnevilyuysk,63.4453,120.3167,73.89,27,0,8.75,RU,1628218298
255,Mahabalipuram,12.6264,80.1722,86.05,58,100,16.46,IN,1628218299
256,Havøysund,70.9963,24.6622,54.48,88,77,6.44,NO,1628218299
257,Leshukonskoye,64.8989,45.7622,50.65,83,92,4.61,RU,1628218299
258,Bilma,18.6853,12.9164,90.27,18,46,3.31,NE,1628218300
259,Laguna,38.421,-121.4238,89.42,46,1,4.0,US,1628218300
260,Kailua,21.4022,-157.7394,87.78,66,75,14.97,US,1628218300
261,Richards Bay,-28.783,32.0377,59.16,91,0,7.81,ZA,1628218301
262,Hirara,24.8,125.2833,88.07,79,75,18.41,JP,1628218301
263,Grootfontein,-19.5667,18.1167,51.37,46,0,4.61,NA,1628218301
264,Ust-Nera,64.5667,143.2,58.26,44,92,6.51,RU,1628218302
265,Sechura,-5.5569,-80.8222,65.1,82,0,12.91,PE,1628218302
266,Guerrero Negro,27.9769,-114.0611,72.09,80,12,13.4,MX,1628218302
267,Djebeniana,35.035,10.9081,78.6,67,0,10.2,TN,1628218303
268,Terrell,32.736,-96.2753,82.13,75,1,5.75,US,1628218303
269,Khovu-Aksy,51.1333,93.6,59.58,75,100,8.28,RU,1628218303
270,Axum,14.1245,38.7244,56.25,84,71,1.97,ET,1628218304
271,Lékoni,-1.5843,14.2591,72.9,79,61,10.36,GA,1628218304
272,Linden,6.0,-58.3,77.14,89,100,1.32,GY,1628218304
273,New Haven,41.4001,-72.9329,69.46,93,40,0.0,US,1628218047
274,Brazzaville,-4.2658,15.2832,71.96,83,0,2.3,CG,1628218305
275,Murdochville,48.9583,-65.5006,65.28,92,100,4.61,CA,1628218305
276,San Cristobal,7.7669,-72.225,75.38,98,94,5.14,VE,1628218305
277,Florianópolis,-27.6146,-48.5012,59.4,97,75,0.0,BR,1628218306
278,Kieta,-6.2167,155.6333,82.4,79,100,7.65,PG,1628218306
279,Nantucket,41.2835,-70.0995,70.02,96,90,12.66,US,1628218214
280,Mahibadhoo,3.7833,72.9667,81.07,78,100,10.18,MV,1628218307
281,Kudahuvadhoo,2.6708,72.8944,82.08,73,97,7.76,MV,1628218307
282,Ardmore,34.1743,-97.1436,71.38,91,40,1.99,US,1628218068
283,Boda,4.3189,17.4695,68.02,95,82,3.74,CF,1628218307
284,Port Hardy,50.6996,-127.4199,62.78,67,40,12.66,CA,1628218308
285,Jizan,17.3333,42.6667,81.54,68,85,7.25,SA,1628218308
286,Ovsyanka,55.9575,92.5519,70.77,67,100,3.2,RU,1628218309
287,Laas,46.6166,10.7002,54.48,84,94,2.51,IT,1628218309
288,Khor,47.8861,134.9464,83.05,56,100,8.66,RU,1628218309
289,Jertih,5.7336,102.4897,85.91,64,99,0.69,MY,1628218310
290,Okhotsk,59.3833,143.3,66.56,48,1,3.67,RU,1628218310
291,Senanga,-16.1167,23.2667,51.24,37,0,4.38,ZM,1628218310
292,Mahébourg,-20.4081,57.7,66.49,88,40,16.11,MU,1628218311
293,Ahipara,-35.1667,173.1667,57.11,84,36,18.41,NZ,1628218311
294,Bontang,0.1333,117.5,85.33,65,100,6.58,ID,1628218311
295,San Quintín,30.4833,-115.95,67.84,84,1,9.08,MX,1628218312
296,Phan Thiet,10.9333,108.1,88.88,58,98,16.04,VN,1628218137
297,Arona,28.0996,-16.681,67.73,79,75,4.0,ES,1628218312
298,New Norfolk,-42.7826,147.0587,59.72,58,94,8.99,AU,1628218312
299,Katsuura,35.1333,140.3,89.71,73,48,8.75,JP,1628218313
300,Caravelas,-17.7125,-39.2481,70.61,70,91,9.66,BR,1628218313
301,Palmer,42.1584,-72.3287,67.46,85,40,0.0,US,1628218313
302,Podor,16.6527,-14.9587,82.31,58,9,13.78,MR,1628218314
303,Tilichiki,60.4667,166.1,50.41,78,100,21.92,RU,1628218314
304,Kenai,60.5544,-151.2583,66.02,78,90,6.91,US,1628218314
305,Dutse,11.7594,9.3392,73.42,83,88,13.11,NG,1628218315
306,Saint George,37.1041,-113.5841,106.39,12,1,3.0,US,1628218315
307,Gunnedah,-30.9833,150.25,57.72,56,0,5.01,AU,1628218315
308,Natal,-5.795,-35.2094,74.05,88,40,9.22,BR,1628218316
309,Padilla,3.2204,-76.3139,72.97,81,49,4.41,CO,1628218316
310,Portree,57.4129,-6.1942,57.85,88,99,6.42,GB,1628218317
311,Kirakira,-10.4544,161.9205,83.07,61,11,7.54,SB,1628218317
312,Kazygurt,41.7589,69.3864,82.33,24,34,5.17,KZ,1628218317
313,Narsaq,60.9167,-46.05,47.46,92,100,1.45,GL,1628218317
314,Pavino,59.1139,46.1414,54.39,70,91,4.0,RU,1628218318
315,Abu Dhabi,24.4667,54.3667,91.42,79,100,3.44,AE,1628218164
316,Shenjiamen,29.9576,122.298,82.6,79,1,9.69,CN,1628218318
317,Yulin,22.6333,110.15,80.91,91,100,4.25,CN,1628218319
318,Taree,-31.9,152.4667,65.07,42,0,8.05,AU,1628218319
319,Wanning,18.8003,110.3967,91.54,60,100,9.6,CN,1628218319
320,Vostok,46.4856,135.8833,71.08,87,98,1.34,RU,1628218320
321,Sarti,40.1,23.9833,83.95,53,85,3.89,GR,1628218320
322,Mahon,39.8885,4.2658,75.76,88,20,4.61,ES,1628218320
323,Chkalovskoye,44.8392,133.0436,80.15,77,99,4.38,RU,1628218321
324,Bassum,52.85,8.7333,58.1,90,57,7.14,DE,1628218321
325,Jalu,29.0331,21.5482,86.76,21,0,9.66,LY,1628218321
326,Morondava,-20.2833,44.2833,70.07,56,99,8.41,MG,1628218321
327,Andenes,69.3143,16.1194,51.08,93,75,3.44,NO,1628218322
328,Fort Nelson,58.8053,-122.7002,65.79,82,75,5.75,CA,1628218322
329,Dunedin,-45.8742,170.5036,51.13,62,5,2.39,NZ,1628218247
330,Ormara,25.2088,64.6357,80.65,85,85,9.28,PK,1628218323
331,São Filipe,14.8961,-24.4956,77.7,91,99,8.77,CV,1628218323
332,Barkhan,29.8977,69.5256,85.17,42,0,1.23,PK,1628218323
333,Bonfim,3.0833,-59.95,75.63,85,100,3.56,BR,1628218324
334,Katangli,51.7102,143.2326,54.16,96,100,12.93,RU,1628218324
335,Kalcheva,45.7374,28.8141,75.43,84,99,15.08,UA,1628218324
336,Tomari,47.7658,142.0683,74.91,74,100,1.9,RU,1628218325
337,Ransang,8.9603,117.5828,88.75,63,85,12.71,PH,1628218325
338,Anloga,5.7947,0.8973,77.22,90,29,12.03,GH,1628218325
339,Port Moresby,-9.4431,147.1797,85.42,51,75,17.27,PG,1628218326
340,Ixtapa,20.7,-105.2,75.22,99,100,2.37,MX,1628218326
341,Idenao,4.2475,9.0047,74.64,91,93,2.37,CM,1628218326
342,Imbituba,-28.24,-48.6703,61.83,95,100,6.24,BR,1628218269
343,Moosomin,50.1333,-101.6677,67.68,47,12,2.42,CA,1628218327
344,Vereeniging,-26.6731,27.9261,55.62,47,0,3.74,ZA,1628218327
345,Marystown,47.1666,-55.1483,59.41,92,57,7.58,CA,1628218327
346,Cabo San Lucas,22.8909,-109.9124,85.51,76,95,3.0,MX,1628218202
347,Griffith,41.5284,-87.4237,78.73,69,1,5.75,US,1628218328
348,Barth,54.3635,12.7249,61.05,81,100,9.84,DE,1628218328
349,Mananjary,-21.2167,48.3333,64.65,81,82,2.71,MG,1628218329
350,Mbala,-8.8402,31.3659,57.47,67,23,9.04,ZM,1628218329
351,Moerai,-22.4333,-151.3333,73.4,71,7,6.08,PF,1628218033
352,Nan,18.8333,100.6667,80.62,83,40,3.44,TH,1628218329
353,Thompson,55.7435,-97.8558,57.36,62,75,3.44,CA,1628218169
354,Ács,47.7123,18.0113,59.67,88,0,10.36,HU,1628218330
355,Aksu,41.1231,80.2644,84.18,25,99,3.15,CN,1628218330
356,Concepción del Oro,24.6333,-101.4167,67.42,59,95,7.94,MX,1628218330
357,Vienna,48.2085,16.3721,61.97,88,40,1.99,AT,1628218331
358,Clifton,40.8584,-74.1638,72.88,83,91,4.61,US,1628218331
359,Kabo,7.6994,18.629,69.15,98,75,3.89,CF,1628218331
360,Kumul,42.8,93.45,89.26,18,57,7.45,CN,1628218332
361,Abilene,32.4487,-99.7331,80.82,61,1,5.75,US,1628218332
362,Sarangani,5.4033,125.4636,83.66,75,100,9.57,PH,1628218332
363,Srednekolymsk,67.45,153.6833,50.05,72,100,10.33,RU,1628218333
364,Flinders,-34.5833,150.8552,70.18,47,0,5.99,AU,1628218333
365,Alice Springs,-23.7,133.8833,60.35,39,0,13.8,AU,1628218333
366,Pangnirtung,66.1451,-65.7125,40.48,98,100,8.01,CA,1628218334
367,Kamenka,51.3223,42.7678,65.59,54,29,6.73,RU,1628218334
368,Billings Metropolitan Area,45.7833,-108.5007,80.51,39,90,10.36,US,1628218281
369,Ilulissat,69.2167,-51.1,41.94,89,100,9.15,GL,1628218335
370,Lompoc,34.6391,-120.4579,75.13,83,90,14.97,US,1628218335
371,Ulaanbaatar,47.9077,106.8832,68.13,56,0,4.47,MN,1628218060
372,Atkinson,42.8384,-71.147,67.08,94,90,1.01,US,1628218292
373,Richmond,37.5538,-77.4603,74.14,81,1,3.44,US,1628218168
374,General Pico,-35.6566,-63.7568,56.34,52,2,13.09,AR,1628218065
375,Miran Shah,33.0086,70.0697,84.61,58,21,3.24,PK,1628218336
376,Mumbai,19.0144,72.8479,82.38,83,75,12.66,IN,1628218217
377,Gōtsuchō,35.0,132.2167,87.94,49,1,7.25,JP,1628218336
378,Kargasok,59.0556,80.8572,67.39,78,47,1.45,RU,1628218337
379,Dafeng,23.4517,108.5881,93.22,59,95,3.06,CN,1628218337
380,Calamar,10.2511,-74.9146,82.35,86,75,5.55,CO,1628218337
381,Ionia,42.9873,-85.0711,71.74,89,75,0.0,US,1628218338
382,Brawley,32.9787,-115.5303,106.05,31,20,14.97,US,1628218338
383,Poso,-1.3959,120.7524,87.1,63,96,4.05,ID,1628218338
384,Zhangjiakou,40.81,114.8794,79.07,36,0,2.86,CN,1628218339
385,Talara,-4.5772,-81.2719,65.3,89,5,15.95,PE,1628218339
386,Vestmannaeyjar,63.4427,-20.2734,54.7,82,29,2.82,IS,1628218339
387,Geraldton,-28.7667,114.6,66.13,51,0,19.57,AU,1628218340
388,Atasū,48.6814,71.6433,75.88,30,9,5.88,KZ,1628218340
389,Koungou,-12.7336,45.2042,71.31,94,0,6.91,YT,1628218340
390,Marabu,4.4148,114.0089,89.74,58,20,6.91,MY,1628218341
391,Mandalay,21.9747,96.0836,78.89,80,96,4.0,MM,1628218341
392,Inta,66.0317,60.1659,52.83,94,100,12.15,RU,1628218342
393,Mount Isa,-20.7333,139.5,69.57,23,2,12.66,AU,1628218342
394,Santana,-0.0583,-51.1817,82.58,83,20,3.44,BR,1628218343
395,Mandalgovi,45.7625,106.2708,78.94,23,19,14.81,MN,1628218136
396,Saint-Paul,-21.0096,55.2707,66.29,66,47,4.54,RE,1628218343
397,Beringovskiy,63.05,179.3167,49.77,83,100,7.81,RU,1628218343
398,Bāfq,31.6128,55.4107,83.05,20,42,7.16,IR,1628218344
399,Kadirli,37.3739,36.0961,78.03,66,28,1.61,TR,1628218344
400,San Patricio,28.017,-97.5169,84.06,73,100,6.73,US,1628218344
401,Laibin,23.7,109.2667,90.82,63,86,4.14,CN,1628218345
402,Lotoshino,56.2267,35.6414,56.16,94,64,4.29,RU,1628218345
403,Kindu,-2.95,25.95,70.0,84,68,2.15,CD,1628218345
404,Nicoya,10.1483,-85.452,74.75,93,100,0.94,CR,1628218346
405,Ilebo,-4.3167,20.5833,69.93,39,0,1.12,CD,1628218346
406,Coquimbo,-29.9533,-71.3436,55.13,82,90,4.61,CL,1628218346
407,Markala,13.7021,-6.0659,77.97,77,100,5.3,ML,1628218347
408,Necochea,-38.5473,-58.7368,52.65,88,0,14.05,AR,1628218347
409,Eilat,29.5581,34.9482,85.84,39,0,0.0,IL,1628218347
410,Mehamn,71.0357,27.8492,51.75,87,0,1.14,NO,1628218348
411,Mazamitla,19.9167,-103.0333,56.44,96,100,0.81,MX,1628218348
412,Port Hedland,-20.3167,118.5667,77.05,18,3,25.32,AU,1628218348
413,Walvis Bay,-22.9575,14.5053,53.1,93,0,2.3,NA,1628218349
414,Hamilton,39.1834,-84.5333,75.36,77,1,0.0,US,1628218123
415,Xichang,27.8964,102.2634,79.09,64,92,2.66,CN,1628218349
416,Kitui,-1.367,38.0106,58.89,86,79,7.2,KE,1628218350
417,San Jose,37.3394,-121.895,72.68,70,20,13.8,US,1628218280
418,Berea,41.3662,-81.8543,72.23,76,20,4.61,US,1628218182
419,Milton,34.1322,-84.3007,76.12,87,96,3.4,US,1628218351
420,Pascagoula,30.3658,-88.5561,80.62,83,90,0.0,US,1628218351
421,Stornoway,58.2093,-6.3865,58.96,88,100,10.36,GB,1628218351
422,Severodvinsk,64.5635,39.8302,39.31,77,13,3.33,RU,1628218352
423,Rudnogorsk,57.2639,103.7519,70.75,46,41,5.66,RU,1628218352
424,Rockport,28.0206,-97.0544,84.22,85,1,4.0,US,1628218352
425,Custoias,41.1053,-7.321,55.45,94,0,3.56,PT,1628218353
426,Arrondissement de Saint-Denis,48.9167,2.3333,65.17,81,90,4.0,FR,1628218353
427,Los Llanos de Aridane,28.6585,-17.9182,67.75,95,0,13.8,ES,1628218353
428,Miquelon,47.0975,-56.3814,60.8,96,60,16.02,PM,1628218354
429,El Jícaro,14.9167,-89.9,74.32,97,100,2.51,GT,1628218354
430,Aripuanã,-9.1667,-60.6333,73.26,44,23,2.39,BR,1628218354
431,West Wendover,40.7391,-114.0733,96.01,11,1,12.66,US,1628218355
432,Sept-Îles,50.2001,-66.3821,59.52,93,75,3.0,CA,1628218322
433,Arrecife,28.963,-13.5477,71.67,83,90,11.5,ES,1628218292
434,Hokitika,-42.7167,170.9667,54.12,76,94,4.5,NZ,1628218355
435,Bereket,39.2446,55.5154,86.11,34,3,5.01,TM,1628218356
436,Tarauacá,-8.1614,-70.7656,73.63,51,0,1.34,BR,1628218356
437,Mayya,61.7333,130.2811,70.92,32,55,7.7,RU,1628218357
438,Udachny,66.4167,112.4,64.15,30,43,21.68,RU,1628218357
439,Fort-Shevchenko,44.5086,50.263,81.75,63,7,10.11,KZ,1628218358
440,Tezu,27.9167,96.1667,91.53,55,14,3.24,IN,1628218358
441,Vozrozhdeniye,44.5503,38.2136,72.25,90,2,6.31,RU,1628218358
442,Waingapu,-9.6567,120.2641,84.88,58,70,19.08,ID,1628218358
443,Kiruna,67.8557,20.2251,43.72,93,0,3.44,SE,1628218359
444,Santa Rosa,14.3122,121.1114,90.09,69,100,17.18,PH,1628218100
445,Ijuí,-28.3878,-53.9147,57.22,71,100,9.42,BR,1628218359
446,Perbaungan,3.5679,98.956,87.91,70,82,2.1,ID,1628218360
447,Le Pradet,43.1066,6.0172,72.63,73,0,3.44,FR,1628218360
448,Solnechnyy,50.7214,136.6319,59.18,99,100,3.06,RU,1628218360
449,Georgiyevskoye,58.731,45.024,55.15,68,84,3.74,RU,1628218361
450,Ialibu,-6.2821,143.9935,68.63,94,99,2.84,PG,1628218361
451,Zarinsk,53.7074,84.9493,60.89,92,100,6.87,RU,1628218361
452,Rio Pardo,-29.9897,-52.3781,56.34,98,100,5.3,BR,1628218362
453,Bahía Honda,22.9036,-83.1592,79.48,82,70,4.45,CU,1628218362
454,Mitsamiouli,-11.3847,43.2844,74.68,69,3,7.11,KM,1628218362
455,Ilhabela,-23.7781,-45.3581,64.71,90,97,6.02,BR,1628218363
456,Ambon City,-3.6954,128.1814,77.14,94,40,8.05,ID,1628218363
457,Namatanai,-3.6667,152.4333,81.93,77,79,12.41,PG,1628218363
458,Hopkinton,41.4612,-71.7776,67.53,91,1,0.0,US,1628218364
459,Smithers,54.7804,-127.1743,68.32,40,75,0.0,CA,1628218281
460,Amapá,1.0,-52.0,72.28,96,75,2.21,BR,1628218364
461,Sciacca,37.5082,13.0881,78.03,41,9,5.28,IT,1628218365
462,Tiarei,-17.5333,-149.3333,80.62,72,99,5.12,PF,1628218365
463,Quatre Cocos,-20.2078,57.7625,66.31,63,74,12.64,MU,1628218365
464,Boa Vista,2.8197,-60.6733,80.58,78,20,4.61,BR,1628218366
465,Meadow Lake,34.8014,-106.5436,85.3,28,2,6.22,US,1628218366
466,Shingū,33.7333,135.9833,86.92,91,100,11.99,JP,1628218366
467,Broome,42.2506,-75.833,66.78,80,0,2.08,US,1628218367
468,Salcia Tudor,45.3667,27.5167,71.47,83,73,4.7,RO,1628218367
469,Kyshtovka,56.555,76.6271,64.92,81,6,7.54,RU,1628218367
470,Tipuani,-15.5648,-68.0185,64.06,77,0,2.26,BO,1628218368
471,Muravlenko,63.7898,74.523,71.11,60,29,11.05,RU,1628218368
472,Minden,52.2833,8.9167,59.22,91,47,6.91,DE,1628218201
473,Pahlgām,34.0333,75.3333,64.51,59,1,3.62,IN,1628218368
474,Rexburg,43.826,-111.7897,82.38,28,75,13.8,US,1628218369
475,Esterhazy,50.65,-102.0843,68.85,46,14,6.2,CA,1628218249
476,Dekar,-21.5333,21.9333,56.17,33,0,8.7,BW,1628218369
477,Powell,40.1578,-83.0752,77.0,72,90,0.0,US,1628218331
478,Makaha,21.4694,-158.2175,87.71,57,1,16.11,US,1628218370
479,Alofi,-19.0595,-169.9187,80.49,69,40,4.61,NU,1628218370
480,Bom Jesus,-9.0744,-44.3586,68.31,46,16,2.1,BR,1628218370
481,Sørland,67.667,12.6934,54.77,84,100,8.5,NO,1628218371
482,Havelock,34.8791,-76.9013,75.18,94,10,4.0,US,1628218285
483,Pouébo,-20.4,164.5667,74.88,46,98,2.42,NC,1628218092
484,Launceston,-41.45,147.1667,62.62,63,79,8.01,AU,1628218371
485,Jinchang,38.4953,102.1739,81.91,26,45,7.09,CN,1628218371
486,Vaitape,-16.5167,-151.75,79.12,70,99,5.91,PF,1628218372
487,Gushikawa,26.3544,127.8686,85.62,83,40,11.5,JP,1628218373
488,Myanaung,18.2833,95.3167,76.93,95,100,4.21,MM,1628218373
489,Mackay,-21.15,149.2,73.69,46,97,17.27,AU,1628218373
490,Camacha,33.0833,-16.3333,71.53,94,75,10.36,PT,1628218374
491,Peniche,39.3558,-9.3811,66.72,83,12,14.12,PT,1628218374
492,Kununurra,-15.7667,128.7333,76.98,15,1,14.97,AU,1628218374
493,Mikhaylovka,50.06,43.2379,69.08,46,55,6.06,RU,1628218375
494,Khani,41.9563,42.9566,65.77,58,93,6.51,GE,1628218375
495,Uyuni,-20.4597,-66.825,36.64,19,0,10.29,BO,1628218375
496,Gallup,35.5281,-108.7426,84.96,20,1,1.01,US,1628218376
497,Manggar,-2.8833,108.2667,85.24,72,100,11.56,ID,1628218376
498,Binzhou,37.3667,118.0167,91.27,56,0,1.92,CN,1628218376
499,Semnan,35.5729,53.3971,78.24,29,37,5.66,IR,1628218377
500,Bodden Town,19.2833,-81.25,84.2,84,20,4.61,KY,1628218377
501,Pontianak,-0.0333,109.3333,84.18,70,20,9.22,ID,1628218377
502,Cap Malheureux,-19.9842,57.6142,66.69,71,18,4.0,MU,1628218378
503,Nīlēshwar,12.25,75.1,79.45,85,94,12.03,IN,1628218378
504,Ancud,-41.8697,-73.8203,50.23,87,100,12.64,CL,1628218378
505,Lorengau,-2.0226,147.2712,84.69,73,31,11.25,PG,1628218379
506,Arrondissement de Clermont,49.5,2.4167,64.11,91,100,13.31,FR,1628218379
507,Puerto Madryn,-42.7692,-65.0385,61.2,42,100,12.82,AR,1628218264
508,Ishim,56.1128,69.4902,63.9,95,100,7.45,RU,1628218380
509,Changping,40.2186,116.2197,83.84,38,0,0.83,CN,1628218380
510,Menongue,-14.6585,17.691,49.91,33,0,4.9,AO,1628218380
511,Manokwari,-0.8667,134.0833,84.56,68,76,5.17,ID,1628218381
512,Berezovyy,51.6667,135.7,58.3,99,100,3.24,RU,1628218381
513,Larsnes,62.2028,5.5773,56.86,84,100,3.78,NO,1628218381
514,Vincennes,48.85,2.4333,64.96,85,90,4.0,FR,1628218382
515,Iberia,29.9502,-91.7507,78.87,88,1,0.0,US,1628218269
516,Kondinskoye,59.6481,67.41,63.7,90,100,8.59,RU,1628218382
517,Auki,-8.7676,160.7034,83.68,61,16,8.84,SB,1628218382
518,Łapy,52.9911,22.8842,60.49,97,100,15.7,PL,1628218383
519,Delta del Tigre,-34.7633,-56.3853,59.11,90,3,8.99,UY,1628218383
520,Tungor,53.3808,142.9564,57.6,81,99,14.2,RU,1628218383
521,Koshurnikovo,54.1667,93.3,60.57,84,100,1.7,RU,1628218384
522,Kloulklubed,7.0419,134.2556,83.97,67,99,3.85,PW,1628218384
523,Vila Velha,-20.3297,-40.2925,62.55,94,75,0.0,BR,1628218384
524,High Level,58.5169,-117.136,71.71,64,20,8.05,CA,1628218385
525,Zaozhuang,34.8647,117.5542,86.65,68,48,6.46,CN,1628218385
526,Salalah,17.0151,54.0924,75.16,96,100,6.22,OM,1628218385
527,Acton Vale,45.6501,-72.5658,72.64,98,0,4.47,CA,1628218386
528,Erenhot,43.6475,111.9767,77.88,28,0,5.37,CN,1628218386
529,College,64.8569,-147.8028,82.99,44,75,5.75,US,1628218106
530,Ambikāpur,23.1167,83.2,80.01,79,61,3.94,IN,1628218387
531,Margate,51.3813,1.3862,62.31,95,64,8.01,GB,1628218387
532,Goulburn,-34.75,149.7167,57.65,61,0,18.61,AU,1628218387
533,Haines Junction,60.7522,-137.5108,67.95,60,92,4.61,CA,1628218387
534,Pontes e Lacerda,-15.2261,-59.3353,69.06,33,23,3.58,BR,1628218274
535,Korla,41.7597,86.1469,87.73,16,94,11.41,CN,1628218388
536,Nuuk,64.1835,-51.7216,43.48,91,100,13.49,GL,1628218388
537,Teguise,29.0605,-13.564,68.22,83,90,11.5,ES,1628218389
538,Bria,6.5423,21.9863,68.04,97,99,2.3,CF,1628218389
539,Tautira,-17.7333,-149.15,80.62,73,92,7.11,PF,1628218389
540,Faya,18.3851,42.4509,66.31,71,97,2.06,SA,1628218390
541,Brae,60.3964,-1.353,58.91,94,56,15.48,GB,1628218390
542,Boende,-0.2167,20.8667,76.24,71,91,3.96,CD,1628218390
543,Lengshuitan,26.4111,111.5956,87.31,73,90,5.57,CN,1628218391
544,Vidim,56.4088,103.1106,69.58,55,8,6.8,RU,1628218391
545,Zyryanka,65.75,150.85,51.1,63,100,14.0,RU,1628218391
546,Vung Tau,10.346,107.0843,84.9,72,100,10.51,VN,1628218373
547,Paramonga,-10.6667,-77.8333,63.61,86,17,9.08,PE,1628218392
548,Westport,41.1415,-73.3579,73.22,93,1,5.99,US,1628218180
549,Östersund,63.1792,14.6357,57.65,72,20,9.22,SE,1628218392
550,Novopavlovka,51.2172,109.2091,75.72,45,45,5.17,RU,1628218393
551,Kikwit,-5.041,18.8162,74.32,30,7,1.68,CD,1628218393
552,Pimentel,-6.8367,-79.9342,64.0,84,0,1.99,PE,1628218393
553,Skibbereen,51.55,-9.2667,58.8,85,96,20.92,IE,1628218394
554,Vardø,70.3705,31.1107,46.6,81,43,5.48,NO,1628218394
555,Umm Hājar,13.2954,19.6966,81.88,68,100,7.85,TD,1628218394
556,Mosina,52.2454,16.8471,62.35,85,0,5.75,PL,1628218395
557,Neepawa,50.2289,-99.4664,66.6,45,0,7.45,CA,1628218395
558,Filingué,14.3521,3.3168,82.76,65,53,14.41,NE,1628218395
559,Jiuquan,39.7432,98.5174,86.99,13,75,6.38,CN,1628218396
560,Buba,11.5833,-15.0,74.66,94,100,7.87,GW,1628218396
561,Umm Kaddadah,13.6017,26.6876,82.31,59,50,11.68,SD,1628218396
562,São Miguel do Araguaia,-13.275,-50.1628,75.72,33,94,5.28,BR,1628218153
563,Kargil,34.5667,76.1,57.07,38,0,3.76,IN,1628218397
564,Tarancón,40.0085,-3.0073,74.48,35,1,4.97,ES,1628218397
565,Sanarate,14.795,-90.1922,71.91,96,100,2.08,GT,1628218397
566,Changji,44.0167,87.3167,83.19,26,0,2.24,CN,1628218398
567,Ol'ga,43.7444,135.2892,81.54,71,100,4.68,RU,1628218398
568,Grøa,62.65,8.7167,53.69,83,95,6.87,NO,1628218398
569,Sola,-13.8833,167.55,78.53,71,0,0.98,VU,1628218399
570,Chara,56.9064,118.2631,57.33,94,100,1.74,RU,1628218399
571,Río Cuarto,-33.1307,-64.3499,45.84,40,0,14.16,AR,1628218399
572,Lata,40.1629,-8.3327,64.06,97,46,2.51,PT,1628218400
573,Dhidhdhoo,6.8833,73.1,81.97,76,100,13.11,MV,1628218400
574,Khorramshahr,30.4397,48.1664,94.95,33,40,4.61,IR,1628218400
575,Shaunavon,49.6501,-108.4181,76.78,35,15,10.78,CA,1628218282
576,Leopold,-38.1833,144.4667,58.57,78,90,8.99,AU,1628218401
