,City,Lat,Lng,Max Temp,Humidity,Cloudiness,Wind Speed,Country,Date
0,Yellowknife,62.456,-114.3525,56.28,76,100,5.99,CA,1628233763
1,Longyearbyen,78.2186,15.6401,46.24,66,75,2.3,SJ,1628233764
2,Antalaha,-14.9003,50.2788,74.79,61,51,10.67,MG,1628233764
3,Menongue,-14.6585,17.691,64.62,21,0,6.17,AO,1628233764
4,Bredasdorp,-34.5322,20.0403,56.28,91,89,4.38,ZA,1628233765
5,Muros,42.7762,-9.0603,64.24,92,100,3.13,ES,1628233765
6,Havøysund,70.9963,24.6622,58.08,77,85,2.39,NO,1628233765
7,Campbellsville,37.3434,-85.3419,67.37,74,100,2.77,US,1628233498
8,Port Hardy,50.6996,-127.4199,56.01,93,100,6.6,CA,1628233766
9,Rikitea,-23.1203,-134.9692,74.05,77,12,14.27,PF,1628233766
10,Ponta do Sol,32.6667,-17.1,75.0,81,63,5.28,PT,1628233767
11,Punta Arenas,-53.15,-70.9167,33.91,86,75,17.27,CL,1628233767
12,Torbay,47.6666,-52.7314,65.48,93,53,11.65,CA,1628233767
13,Lázaro Cárdenas,17.9583,-102.2,77.59,83,100,4.12,MX,1628233768
14,Maningrida,-12.0667,134.2667,84.33,39,98,10.13,AU,1628233768
15,Port Elizabeth,-33.918,25.5701,60.1,94,75,11.5,ZA,1628233605
16,Mataura,-46.1927,168.8643,48.47,95,100,0.29,NZ,1628233768
17,Faanui,-16.4833,-151.75,78.8,73,22,6.87,PF,1628233769
18,Ostrovnoy,68.0531,39.5131,57.33,66,100,5.46,RU,1628233769
19,Avarua,-21.2078,-159.775,66.25,94,100,1.14,CK,1628233770
20,Hermanus,-34.4187,19.2345,57.9,83,2,7.96,ZA,1628233770
21,Monroe,43.1501,-77.6831,67.51,84,1,3.44,US,1628233686
22,Mēga,4.05,38.3,62.64,60,49,17.6,ET,1628233771
23,Noumea,-22.2763,166.4572,66.18,63,86,7.52,NC,1628233758
24,Batemans Bay,-35.7167,150.1833,59.92,68,10,3.62,AU,1628233771
25,Nishihara,26.1842,127.7558,85.68,94,75,16.11,JP,1628233772
26,Vaini,-21.2,-175.2,69.96,94,75,3.44,TO,1628233772
27,Egvekinot,66.3167,-179.1667,51.48,79,100,4.7,RU,1628233772
28,Carnarvon,-24.8667,113.6333,82.47,36,75,12.66,AU,1628233773
29,Mossamedes,-15.1961,12.1522,68.86,71,0,2.17,AO,1628233773
30,Albany,42.6001,-73.9662,64.81,90,0,2.57,US,1628233773
31,Hobart,-42.8794,147.3294,54.1,68,40,1.99,AU,1628233606
32,Constitución,-35.3333,-72.4167,50.4,87,100,2.35,CL,1628233774
33,Mar del Plata,-38.0023,-57.5575,52.12,30,90,5.99,AR,1628233774
34,Abu Dhabi,24.4667,54.3667,102.31,63,7,4.61,AE,1628233524
35,Vao,-22.6667,167.4833,68.63,61,94,18.92,NC,1628233775
36,Gołdap,54.3063,22.3036,52.29,98,100,17.72,PL,1628233775
37,Busselton,-33.65,115.3333,67.05,65,0,11.95,AU,1628233776
38,Le Port,-20.9373,55.2919,73.4,60,7,5.19,RE,1628233776
39,Chui,-33.6971,-53.4616,56.55,95,98,9.46,UY,1628233776
40,Pevek,69.7008,170.3133,38.39,95,100,2.28,RU,1628233777
41,Chokurdakh,70.6333,147.9167,45.91,71,94,11.05,RU,1628233777
42,Chimbote,-9.0853,-78.5783,62.37,89,67,6.62,PE,1628233777
43,East London,-33.0153,27.9116,64.15,70,6,16.8,ZA,1628233778
44,Marawi,7.9986,124.2928,83.64,79,100,3.4,PH,1628233778
45,Barrow,71.2906,-156.7887,37.42,80,90,14.97,US,1628233778
46,Sarishābāri,24.7333,89.8333,87.24,71,97,5.19,BD,1628233779
47,Saskylakh,71.9167,114.0833,61.79,40,100,14.88,RU,1628233779
48,Nabire,-3.3667,135.4833,86.65,63,59,4.65,ID,1628233779
49,Marzuq,14.4,46.4667,88.05,37,74,5.55,YE,1628233780
50,Ipixuna,-1.7625,-48.8043,76.95,95,0,3.22,BR,1628233780
51,Grand Gaube,-20.0064,57.6608,75.38,56,27,7.0,MU,1628233780
52,Mbour,14.422,-16.9638,77.85,84,94,5.12,SN,1628233781
53,Thompson,55.7435,-97.8558,58.26,50,100,2.71,CA,1628233781
54,Saint George,37.1041,-113.5841,97.39,18,1,1.99,US,1628233653
55,Padang,-0.9492,100.3543,87.85,61,34,6.71,ID,1628233781
56,Maués,-3.3836,-57.7186,71.6,92,6,2.26,BR,1628233782
57,Sorong,-0.8833,131.25,84.02,73,62,11.5,ID,1628233782
58,Qaanaaq,77.484,-69.3632,41.67,62,0,6.55,GL,1628233782
59,Laguna,38.421,-121.4238,73.85,74,1,1.01,US,1628233783
60,Montepuez,-13.1256,38.9997,74.34,52,8,6.67,MZ,1628233783
61,Bethel,41.3712,-73.414,68.02,93,1,0.0,US,1628233592
62,Tasiilaq,65.6145,-37.6368,36.95,77,100,4.45,GL,1628233783
63,Teguise,29.0605,-13.564,66.42,83,20,14.97,ES,1628233784
64,Port Alfred,-33.5906,26.891,62.4,81,14,14.72,ZA,1628233784
65,Kapaa,22.0752,-159.319,80.92,77,40,5.99,US,1628233784
66,Sladkovo,55.5284,70.3385,79.12,41,89,9.22,RU,1628233785
67,Ushuaia,-54.8,-68.3,35.26,93,90,25.32,AR,1628233661
68,Puerto Ayora,-0.7393,-90.3518,70.56,93,55,7.0,EC,1628233785
69,Los Llanos de Aridane,28.6585,-17.9182,67.75,94,40,12.66,ES,1628233786
70,Yangi Marg`ilon,40.4272,71.7189,90.32,27,0,6.91,UZ,1628233786
71,Mahébourg,-20.4081,57.7,75.25,61,0,13.78,MU,1628233786
72,Ribeira Grande,38.5167,-28.7,73.8,68,40,6.91,PT,1628233787
73,Salinas,36.6777,-121.6555,62.71,86,90,5.75,US,1628233787
74,San Rafael,-34.6177,-68.3301,57.25,33,100,7.58,AR,1628233787
75,Arraial do Cabo,-22.9661,-42.0278,66.99,83,85,10.8,BR,1628233788
76,Sechura,-5.5569,-80.8222,63.61,86,0,8.9,PE,1628233788
77,Butaritari,3.0707,172.7902,83.01,66,5,11.9,KI,1628233788
78,Uglegorsk,49.0833,142.0333,63.07,93,100,5.59,RU,1628233789
79,Khatanga,71.9667,102.5,74.95,26,23,12.88,RU,1628233789
80,Tuktoyaktuk,69.4541,-133.0374,38.46,84,100,17.43,CA,1628233789
81,Kyabram,-36.3167,145.05,51.87,68,100,5.95,AU,1628233790
82,Oddur,4.1213,43.8894,81.05,48,25,21.18,SO,1628233790
83,Honningsvåg,70.9821,25.9704,53.35,82,0,10.36,NO,1628233790
84,Hong Kong,22.2855,114.1577,87.85,89,100,1.99,HK,1628233706
85,Wanning,18.8003,110.3967,93.25,58,100,13.87,CN,1628233791
86,Cape Town,-33.9258,18.4232,58.12,96,0,2.3,ZA,1628233745
87,Ancud,-41.8697,-73.8203,49.53,86,100,12.62,CL,1628233791
88,Vostok,46.4856,135.8833,73.0,87,100,0.63,RU,1628233792
89,Aripuanã,-9.1667,-60.6333,68.83,53,4,1.68,BR,1628233792
90,Cidreira,-30.1811,-50.2056,59.68,96,98,15.46,BR,1628233792
91,Orativ,49.1889,29.527,66.97,91,100,12.86,UA,1628233793
92,Katsuura,35.1333,140.3,91.51,76,16,9.82,JP,1628233793
93,Kaitangata,-46.2817,169.8464,49.93,70,31,5.39,NZ,1628233793
94,Kargasok,59.0556,80.8572,74.3,64,99,7.31,RU,1628233794
95,Souillac,-20.5167,57.5167,75.36,56,0,12.59,MU,1628233794
96,Homer,59.6425,-151.5483,57.07,89,90,0.0,US,1628233720
97,Chhor,25.5167,69.7667,98.51,36,1,16.73,PK,1628233795
98,Lebu,-37.6167,-73.65,50.68,87,100,7.72,CL,1628233795
99,Vanavara,60.34,102.2797,77.85,38,100,8.28,RU,1628233795
100,Batavia,41.85,-88.3126,75.76,72,75,6.91,US,1628233796
101,San Patricio,28.017,-97.5169,82.81,77,70,6.06,US,1628233796
102,Alpena,45.0617,-83.4327,68.25,88,1,4.61,US,1628233796
103,Bonfim,3.0833,-59.95,73.11,91,89,1.95,BR,1628233797
104,Bereda,43.2686,-7.5406,60.15,80,100,4.81,ES,1628233797
105,Nikolskoye,59.7035,30.7861,64.29,60,25,10.38,RU,1628233797
106,Cosamaloapan,18.3667,-95.8,73.98,95,94,4.12,MX,1628233798
107,Vrangel',42.7297,133.0839,80.08,83,64,5.99,RU,1628233798
108,New Norfolk,-42.7826,147.0587,53.74,63,96,8.01,AU,1628233798
109,Ocotlán,20.35,-102.7667,65.21,94,100,3.44,MX,1628233799
110,Hasaki,35.7333,140.8333,88.2,78,8,9.51,JP,1628233799
111,Bengkulu,-3.8004,102.2655,84.42,66,91,7.61,ID,1628233799
112,Dingle,10.9995,122.6711,88.59,61,100,14.38,PH,1628233800
113,Koson,39.0375,65.585,95.32,12,0,14.03,UZ,1628233800
114,Saint Paul Harbor,57.79,-152.4072,54.91,88,90,4.61,US,1628233744
115,Bertoua,4.5833,13.6833,69.57,96,100,5.35,CM,1628233801
116,Mossendjo,-2.9506,12.7261,71.08,83,62,3.56,CG,1628233801
117,Gambēla,8.25,34.5833,80.11,67,100,3.18,ET,1628233803
118,Erenhot,43.6475,111.9767,86.38,19,10,10.89,CN,1628233803
119,College,64.8569,-147.8028,71.58,67,40,3.44,US,1628233804
120,Alofi,-19.0595,-169.9187,74.57,67,16,7.81,NU,1628233804
121,George Town,5.4112,100.3354,91.33,65,20,9.22,MY,1628233733
122,Nouna,12.7333,-3.8667,77.29,77,97,6.87,BF,1628233805
123,Bathsheba,13.2167,-59.5167,80.02,77,76,14.52,BB,1628233805
124,Floresta,-8.6011,-38.5686,62.67,93,1,5.86,BR,1628233806
125,Boa Vista,2.8197,-60.6733,76.98,88,75,2.3,BR,1628233806
126,Dickinson,29.4608,-95.0513,80.94,83,40,4.61,US,1628233806
127,Bilibino,68.0546,166.4372,67.64,48,84,6.38,RU,1628233807
128,Kaseda-shirakame,31.4167,130.3167,86.85,64,12,16.2,JP,1628233807
129,Karakol,42.4907,78.3936,76.41,31,53,10.85,KG,1628233808
130,Bluff,-46.6,168.3333,48.79,73,100,18.07,NZ,1628233808
131,Provideniya,64.3833,-173.3,51.96,86,95,8.59,RU,1628233809
132,Castro,-24.7911,-50.0119,47.52,97,100,5.23,BR,1628233809
133,Jacareacanga,-6.2222,-57.7528,68.25,52,9,0.38,BR,1628233809
134,Araguari,-18.6472,-48.1872,58.66,59,100,7.25,BR,1628233710
135,Hamilton,39.1834,-84.5333,70.77,87,1,0.0,US,1628233583
136,Paracuru,-3.41,-39.0306,77.11,78,18,12.68,BR,1628233810
137,Nizwá,22.9333,57.5333,102.11,19,0,7.29,OM,1628233810
138,Spearfish,44.4908,-103.8594,71.31,46,100,4.72,US,1628233811
139,Nantong,32.0303,120.8747,92.98,67,31,11.7,CN,1628233811
140,Lompoc,34.6391,-120.4579,67.78,88,90,5.75,US,1628233811
141,Mount Isa,-20.7333,139.5,71.37,20,59,14.97,AU,1628233812
142,Cabo San Lucas,22.8909,-109.9124,83.52,80,75,6.29,MX,1628233812
143,Russell,32.3502,-85.1999,73.0,93,1,0.0,US,1628233812
144,Portlethen,57.0547,-2.1307,58.82,99,75,4.0,GB,1628233813
145,Honiara,-9.4333,159.95,79.43,75,66,2.35,SB,1628233813
146,Dali,25.7,100.1833,77.25,63,96,5.59,CN,1628233813
147,Río Gallegos,-51.6226,-69.2181,35.65,55,0,19.57,AR,1628233814
148,Yorosso,12.3536,-4.7761,72.5,89,96,8.25,ML,1628233814
149,Nanortalik,60.1432,-45.2371,46.2,96,96,3.49,GL,1628233814
150,Port Lincoln,-34.7333,135.8667,57.0,65,86,12.15,AU,1628233815
151,Ulladulla,-35.35,150.4667,63.88,67,3,4.74,AU,1628233815
152,Richards Bay,-28.783,32.0377,69.21,57,0,10.51,ZA,1628233816
153,Port Blair,11.6667,92.75,83.61,81,100,20.69,IN,1628233816
154,Tsnori,41.6209,45.9694,87.04,23,0,6.2,GE,1628233816
155,Myaundzha,63.0494,147.1858,52.84,59,97,12.35,RU,1628233817
156,Konganāpuram,11.5833,77.9167,86.68,41,100,9.71,IN,1628233817
157,Upernavik,72.7868,-56.1549,43.29,66,37,3.27,GL,1628233817
158,Saldanha,-33.0117,17.9442,55.31,80,0,4.63,ZA,1628233818
159,Kyren,51.6828,102.1408,71.67,73,99,7.81,RU,1628233818
160,Atuona,-9.8,-139.0333,77.09,80,15,13.78,PF,1628233818
161,Jamestown,42.097,-79.2353,60.71,93,1,1.99,US,1628233819
162,Chunskiy,56.0815,99.6342,79.5,35,73,9.06,RU,1628233819
163,Atar,20.5169,-13.0499,89.38,21,17,3.71,MR,1628233820
164,Iqaluit,63.7506,-68.5145,41.7,70,100,11.01,CA,1628233820
165,Hilo,19.7297,-155.09,74.93,90,90,3.44,US,1628233665
166,Kumul,42.8,93.45,97.3,13,90,1.81,CN,1628233820
167,Mountain Home,43.133,-115.6912,77.74,35,100,10.13,US,1628233684
168,Paradise,36.0972,-115.1467,100.9,12,1,9.22,US,1628233527
169,Necochea,-38.5473,-58.7368,48.04,93,0,9.66,AR,1628233821
170,Sencha,50.2548,33.346,84.7,34,64,13.04,UA,1628233822
171,Barsovo,61.1667,73.1667,75.33,47,5,4.03,RU,1628233822
172,Taunggyi,20.7833,97.0333,69.57,85,98,7.67,MM,1628233822
173,Saint-Augustin,51.226,-58.6502,59.94,97,100,10.4,CA,1628233823
174,Lorengau,-2.0226,147.2712,82.26,80,17,10.94,PG,1628233823
175,Ormara,25.2088,64.6357,81.43,82,79,13.71,PK,1628233823
176,Leningradskiy,69.3833,178.4167,36.21,97,100,7.99,RU,1628233824
177,Marabu,4.4148,114.0089,87.51,61,41,9.53,MY,1628233824
178,Kushmurun,52.4503,64.6311,92.84,26,61,10.83,KZ,1628233825
179,Cherskiy,68.75,161.3,52.34,66,100,10.89,RU,1628233825
180,Dikson,73.5069,80.5464,45.37,97,92,1.07,RU,1628233825
181,Asău,46.4333,26.4,74.39,75,100,8.21,RO,1628233826
182,Inírida,3.8653,-67.9239,69.3,99,92,0.29,CO,1628233826
183,Saint-Joseph,-21.3667,55.6167,71.98,67,20,5.99,RE,1628233655
184,Poum,-20.2333,164.0167,69.55,62,97,24.61,NC,1628233827
185,Pescantina,45.4837,10.8685,75.49,77,0,1.14,IT,1628233827
186,Kahului,20.8947,-156.47,77.85,85,75,16.11,US,1628233827
187,Mount Gambier,-37.8333,140.7667,52.36,81,100,8.28,AU,1628233828
188,Kensington,-33.9167,151.2167,68.31,50,0,1.01,AU,1628233828
189,Barcelona,41.3888,2.159,77.77,86,75,5.99,ES,1628233677
190,Te Anau,-45.4167,167.7167,41.18,92,100,1.12,NZ,1628233829
191,Grand-Santi,4.25,-54.3833,71.65,100,100,1.3,GF,1628233829
192,Gizo Government Station,-8.103,156.8419,82.18,71,99,16.13,SB,1628233829
193,Tessalit,20.1986,1.0114,84.85,44,69,14.81,ML,1628233830
194,Kitale,1.0157,35.0062,69.48,64,6,1.66,KE,1628233830
195,Linxia Chengguanzhen,35.6003,103.2064,81.54,32,100,3.87,CN,1628233831
196,Sharkan,57.2989,53.8712,69.17,46,2,10.76,RU,1628233831
197,Nadym,65.5333,72.5167,77.43,44,94,5.26,RU,1628233831
198,Hanzhong,33.0728,107.0303,86.67,59,10,4.47,CN,1628233832
199,High Level,58.5169,-117.136,54.19,94,100,4.34,CA,1628233716
200,Anadyr,64.75,177.4833,55.9,71,0,4.47,RU,1628233832
201,Kisangani,0.5167,25.2,74.89,84,100,3.4,CD,1628233833
202,Aasiaat,68.7098,-52.8699,40.12,94,84,13.24,GL,1628233833
203,Grindavik,63.8424,-22.4338,53.56,100,75,3.44,IS,1628233833
204,Hithadhoo,-0.6,73.0833,80.55,78,99,11.83,MV,1628233834
205,Umluj,25.0213,37.2685,95.72,40,6,3.56,SA,1628233834
206,Alugan,12.2188,125.4808,89.85,59,100,6.44,PH,1628233834
207,Tegul'det,57.3064,88.1667,75.15,48,89,3.56,RU,1628233835
208,Novaya Ladoga,60.1025,32.3019,63.0,75,92,12.46,RU,1628233835
209,Grootfontein,-19.5667,18.1167,62.51,28,2,4.21,NA,1628233835
210,Faya,18.3851,42.4509,77.52,41,10,6.78,SA,1628233836
211,Dogondoutchi,13.6393,4.0287,79.47,74,57,14.76,NE,1628233836
212,Kaka,37.3482,59.6143,98.55,12,0,13.62,TM,1628233836
213,Zelenoborskiy,66.845,32.3622,57.88,62,41,1.97,RU,1628233837
214,Andrews,32.3187,-102.5457,76.26,64,1,9.22,US,1628233837
215,Nagarote,12.2659,-86.5647,76.5,88,100,4.21,NI,1628233837
216,Denpasar,-8.65,115.2167,83.86,79,20,23.02,ID,1628233807
217,Ilulissat,69.2167,-51.1,44.62,93,90,1.14,GL,1628233838
218,Tiksi,71.6872,128.8694,41.16,86,90,17.96,RU,1628233838
219,Brekstad,63.687,9.6654,62.65,77,0,14.97,NO,1628233839
220,Pathein,16.7833,94.7333,78.33,89,100,9.62,MM,1628233839
221,Beloha,-25.1667,45.05,74.71,37,0,5.68,MG,1628233839
222,Neryungri,56.6709,124.6491,59.52,95,100,1.72,RU,1628233840
223,Havre-St-Pierre,50.2334,-63.5986,58.39,94,100,4.92,CA,1628233840
224,Caluquembe,-13.7833,14.6833,63.41,37,0,2.8,AO,1628233840
225,Turukhansk,65.8167,87.9833,80.22,34,28,11.54,RU,1628233840
226,San Fernando del Valle de Catamarca,-28.4696,-65.7852,60.78,55,0,1.99,AR,1628233841
227,Namie,37.4833,141.0,93.78,76,8,1.01,JP,1628233841
228,Karratha,-20.7377,116.8463,77.65,30,6,21.12,AU,1628233841
229,Tura,25.5198,90.2201,84.79,81,84,4.38,IN,1628233842
230,Seydi,39.4816,62.9137,101.03,13,0,22.28,TM,1628233842
231,Saint-Philippe,-21.3585,55.7679,72.99,65,12,10.58,RE,1628233843
232,Fort Madison,40.6298,-91.3151,72.28,94,99,8.05,US,1628233657
233,Dukat,62.55,155.55,46.31,77,62,18.48,RU,1628233843
234,Anse-Bertrand,16.4721,-61.5078,78.62,71,97,15.1,GP,1628233844
235,Bonavista,48.6499,-53.1147,63.12,89,100,14.2,CA,1628233844
236,Kruisfontein,-34.0033,24.7314,57.88,75,7,5.64,ZA,1628233844
237,Porto-Novo,6.4965,2.6036,76.46,84,83,6.2,BJ,1628233845
238,Camacha,33.0833,-16.3333,71.53,88,75,9.22,PT,1628233845
239,Airai,-8.9266,125.4092,68.45,58,92,4.97,TL,1628233845
240,Povenets,62.8487,34.8262,63.01,50,57,3.98,RU,1628233846
241,Visnes,59.3556,5.2242,64.29,72,40,11.5,NO,1628233846
242,São Filipe,14.8961,-24.4956,77.47,90,100,9.08,CV,1628233847
243,Kiryat Shmona,33.2073,35.5721,91.76,24,64,7.94,IL,1628233847
244,Rocha,-34.4833,-54.3333,54.03,97,17,7.56,UY,1628233841
245,Saint Anthony,45.0205,-93.218,71.71,90,1,1.99,US,1628233848
246,Rio Grande,-32.035,-52.0986,57.94,94,100,13.31,BR,1628233635
247,West Plains,36.7281,-91.8524,76.03,77,1,4.0,US,1628233707
248,Mnogovershinnyy,53.9353,139.9242,51.85,95,100,5.5,RU,1628233848
249,Lagoa,39.05,-27.9833,71.76,78,0,17.98,PT,1628233576
250,Olafsvik,64.8945,-23.7142,53.13,82,83,2.71,IS,1628233849
251,Varzelândia,-15.7014,-44.0275,59.49,77,100,11.7,BR,1628233849
252,Pisco,-13.7,-76.2167,64.45,72,90,3.44,PE,1628233849
253,Ambon City,-3.6954,128.1814,79.54,83,34,14.97,ID,1628233850
254,Ciudad del Carmen,18.6333,-91.8333,81.55,81,100,9.6,MX,1628233850
255,Bandarbeyla,9.4942,50.8122,86.59,47,100,26.87,SO,1628233850
256,Aban,56.67,96.06,79.43,38,59,5.64,RU,1628233851
257,Arman',59.7,150.1667,57.22,55,34,23.87,RU,1628233851
258,Hofn,64.2539,-15.2082,52.61,86,98,2.98,IS,1628233852
259,Kieta,-6.2167,155.6333,81.64,80,100,7.78,PG,1628233852
260,Broome,42.2506,-75.833,63.68,86,0,2.04,US,1628233852
261,Meulaboh,4.1363,96.1285,87.04,59,100,7.87,ID,1628233853
262,Ingham,42.6,-84.3833,65.82,88,1,5.75,US,1628233853
263,Tommot,58.9564,126.2925,69.62,75,100,8.08,RU,1628233853
264,Kalmunai,7.4167,81.8167,91.53,50,100,5.39,LK,1628233854
265,Klyuchi,52.2667,79.1667,77.31,40,97,11.27,RU,1628233854
266,Springbok,-29.6643,17.8865,55.98,30,0,4.61,ZA,1628233855
267,Khingansk,49.1167,131.1833,69.48,82,81,4.56,RU,1628233855
268,Katangli,51.7102,143.2326,53.69,98,100,11.54,RU,1628233855
269,Vallenar,-28.5708,-70.7581,59.99,59,15,0.81,CL,1628233856
270,Kropotkin,45.4375,40.5756,94.32,26,0,17.47,RU,1628233856
271,Cayenne,4.9333,-52.3333,73.44,91,0,3.44,GF,1628233856
272,Bossangoa,6.4926,17.4552,73.18,90,100,2.48,CF,1628233857
273,Ahipara,-35.1667,173.1667,55.31,88,23,19.53,NZ,1628233857
274,Shihezi,44.3,86.0333,91.38,22,0,6.98,CN,1628233857
275,Codrington,-38.2667,141.9667,52.95,84,100,12.44,AU,1628233858
276,Pedreiras,-4.5688,-44.6003,71.19,56,71,2.68,BR,1628233858
277,Sandanski,41.5667,23.2833,87.17,32,16,9.26,BG,1628233858
278,Dunedin,-45.8742,170.5036,47.8,77,36,4.41,NZ,1628233599
279,Iwanai,42.9744,140.5089,83.75,71,79,5.21,JP,1628233859
280,Pacific Grove,36.6177,-121.9166,62.29,91,90,3.0,US,1628233730
281,Vilyuysk,63.7553,121.6247,78.8,26,0,4.79,RU,1628233860
282,Ust'-Koksa,50.2696,85.6108,68.94,47,100,3.13,RU,1628233860
283,Nizhniy Tsasuchey,50.5167,115.1333,81.57,31,10,11.41,RU,1628233861
284,Nome,64.5011,-165.4064,54.16,87,1,14.97,US,1628233862
285,Esperance,-33.8667,121.9,65.64,54,0,7.25,AU,1628233862
286,Kintinku,-5.8833,35.2333,75.2,48,0,6.98,TZ,1628233862
287,Kavaratti,10.5669,72.642,82.31,81,100,22.01,IN,1628233863
288,Troitskoye,52.9821,84.6757,61.03,94,100,7.31,RU,1628233863
289,Nautla,20.2167,-96.7833,77.07,86,30,5.19,MX,1628233863
290,Agirish,61.9247,63.0231,60.06,93,100,4.79,RU,1628233864
291,Klaksvík,62.2266,-6.589,56.32,97,99,9.33,FO,1628233864
292,Nyurba,63.2842,118.3319,78.17,24,1,9.01,RU,1628233865
293,Launceston,-41.45,147.1667,58.64,61,100,3.0,AU,1628233865
294,Rio Brilhante,-21.8019,-54.5464,62.1,58,12,7.07,BR,1628233865
295,Paracale,14.2804,122.7881,92.97,52,93,8.9,PH,1628233866
296,Vardø,70.3705,31.1107,64.15,87,0,5.75,NO,1628233866
297,Aki,33.5,133.9,85.51,70,35,14.88,JP,1628233866
298,Mogadishu,2.0371,45.3438,78.6,71,8,17.09,SO,1628233867
299,Fort Nelson,58.8053,-122.7002,62.19,94,90,2.3,CA,1628233867
300,Laela,-8.5667,32.05,69.75,44,5,3.15,TZ,1628233867
301,Kamsack,51.5667,-101.9009,57.76,55,3,8.97,CA,1628233868
302,Jiuquan,39.7432,98.5174,92.82,10,100,10.45,CN,1628233868
303,Sørland,67.667,12.6934,60.87,78,100,7.47,NO,1628233869
304,Santa Cruz de Tenerife,28.4682,-16.2546,77.72,90,90,5.99,ES,1628233869
305,Banda Aceh,5.5577,95.3222,88.36,59,95,16.69,ID,1628233869
306,San Andrés,12.5847,-81.7006,82.42,83,75,12.66,CO,1628233870
307,Halapitan,7.9175,125.33,85.59,66,76,4.25,PH,1628233870
308,Port Macquarie,-31.4333,152.9167,58.96,54,0,4.9,AU,1628233870
309,Liberal,37.0431,-100.921,68.5,82,1,5.75,US,1628233740
310,Taksimo,56.3444,114.8794,71.17,55,95,6.93,RU,1628233871
311,Aksu,41.1231,80.2644,90.59,20,100,3.24,CN,1628233871
312,Balsas,-7.5325,-46.0356,69.48,40,22,4.27,BR,1628233765
313,Weihe,32.9952,105.3247,84.18,41,74,5.26,CN,1628233872
314,Al Bardīyah,31.7561,25.0865,88.45,49,0,17.9,LY,1628233872
315,Touros,-5.1989,-35.4608,74.3,84,97,15.7,BR,1628233872
316,La Romana,18.4273,-68.9728,82.13,90,2,9.48,DO,1628233873
317,Geraldton,-28.7667,114.6,75.13,43,0,8.32,AU,1628233873
318,Fortuna,40.5982,-124.1573,60.93,74,90,1.01,US,1628233873
319,La Santisima Trinidad,-14.8333,-64.9,67.48,50,0,2.91,BO,1628233874
320,Örnsköldsvik,63.2909,18.7153,66.02,72,75,5.75,SE,1628233874
321,Sobolevo,54.4299,31.8996,60.84,98,100,10.18,RU,1628233874
322,Dawlatabad,36.4141,64.9053,99.72,11,0,13.47,AF,1628233875
323,Vigrestad,58.5667,5.7,64.08,64,33,22.93,NO,1628233875
324,Norman Wells,65.282,-126.8329,60.15,79,81,2.95,CA,1628233876
325,Charters Towers,-20.1,146.2667,71.1,22,100,10.89,AU,1628233876
326,Somerset,40.5668,-74.5496,71.82,95,20,1.01,US,1628233876
327,Srinagar,34.0833,74.8167,80.08,54,0,1.79,IN,1628233877
328,Zaraysk,54.7653,38.8836,72.41,58,97,8.39,RU,1628233877
329,Pāsighāt,28.0667,95.3333,94.78,54,93,4.85,IN,1628233877
330,Acapulco de Juárez,16.8634,-99.8901,77.65,89,100,7.92,MX,1628233790
331,Husavik,66.0449,-17.3389,52.07,83,54,2.19,IS,1628233878
332,Shingū,33.7333,135.9833,87.91,92,93,11.5,JP,1628233878
333,Coos Bay,43.3665,-124.2179,61.86,100,90,0.0,US,1628233879
334,Vanimo,-2.6741,141.3028,83.34,80,98,2.77,PG,1628233879
335,Jamālpur,24.9167,89.9333,91.17,63,99,6.8,BD,1628233879
336,Chara,56.9064,118.2631,57.6,95,100,1.12,RU,1628233880
337,Kaduy,59.2,37.15,57.24,97,100,6.11,RU,1628233880
338,San Benito,36.6166,-121.0844,51.35,75,0,4.36,US,1628233780
339,Emba,48.8264,58.1442,89.87,29,13,13.11,KZ,1628233881
340,Stokmarknes,68.5646,14.9108,57.51,77,0,2.3,NO,1628233881
341,Zhanakorgan,43.9098,67.2495,100.35,14,6,4.43,KZ,1628233881
342,Russellville,35.2784,-93.1338,74.93,64,75,0.0,US,1628233782
343,Caravelas,-17.7125,-39.2481,69.85,70,52,9.57,BR,1628233882
344,Kununurra,-15.7667,128.7333,84.18,11,5,12.66,AU,1628233882
345,Rome,43.2128,-75.4557,64.67,92,1,0.0,US,1628233882
346,San Policarpo,12.1791,125.5072,89.56,60,100,7.92,PH,1628233883
347,Lancaster,40.2504,-76.2499,68.88,89,1,0.0,US,1628233883
348,Grand Island,40.925,-98.342,75.02,66,1,4.0,US,1628233646
349,Bud,39.447,-86.1758,67.55,94,44,4.85,US,1628233884
350,Maragogi,-9.0122,-35.2225,72.99,81,2,11.3,BR,1628233884
351,Half Moon Bay,37.4636,-122.4286,63.05,87,1,0.0,US,1628233884
352,Salym,60.0625,71.4789,77.09,42,0,4.09,RU,1628233885
353,Gangāpur,26.4833,76.7167,90.73,59,100,6.55,IN,1628233885
354,Clyde River,70.4692,-68.5914,37.63,100,90,6.91,CA,1628233885
355,Yar-Sale,66.8333,70.8333,70.86,57,100,6.8,RU,1628233886
356,Boyuibe,-20.4167,-63.2833,57.06,55,0,2.26,BO,1628233871
357,Loa Janan,-0.583,117.095,85.68,69,100,3.8,ID,1628233886
358,Mishkino,55.3389,63.9175,79.54,55,27,11.1,RU,1628233887
359,Soyo,-6.1349,12.3689,73.62,78,32,3.98,AO,1628233887
360,Gobabis,-22.45,18.9667,62.71,25,0,6.69,NA,1628233887
361,Sānand,22.9833,72.3833,89.82,50,100,7.99,IN,1628233888
362,Madawaska,47.3561,-68.3288,64.45,94,90,4.61,US,1628233888
363,Hailey,43.5196,-114.3153,66.06,58,1,9.22,US,1628233864
364,Winschoten,53.1442,7.0347,64.42,86,100,11.41,NL,1628233888
365,Lucapa,-8.4192,20.7447,73.83,16,3,8.57,AO,1628233889
366,Bokoro,12.3807,17.0568,79.97,73,98,14.2,TD,1628233889
367,Morazán,15.3167,-87.6,78.82,97,100,3.22,HN,1628233889
368,Ahmadpur Sial,30.6754,71.7483,96.67,24,0,7.83,PK,1628233890
369,Esim,4.8699,-2.2405,76.46,85,56,6.78,GH,1628233890
370,Maceió,-9.6658,-35.7353,71.04,100,20,3.44,BR,1628233869
371,Saint-François,46.4154,3.9054,66.18,68,75,4.61,FR,1628233891
372,Yairipok,24.6667,94.0667,82.26,87,98,3.91,IN,1628233891
373,Pundaguitan,6.3711,126.1689,84.25,75,75,12.35,PH,1628233892
374,Gamba,-2.65,10.0,74.84,80,69,2.86,GA,1628233892
375,Behshahr,36.6923,53.5526,91.35,30,0,9.01,IR,1628233892
376,Bama,11.5221,13.6856,77.36,78,96,11.95,NG,1628233893
377,Santa Rita,-7.1139,-34.9781,72.27,94,40,5.75,BR,1628233893
378,Labuhan,-6.8844,112.2051,88.66,59,38,13.94,ID,1628233893
379,Chubbuck,42.9208,-112.4661,69.69,49,1,14.97,US,1628233894
380,Vila,42.0304,-8.1588,53.74,84,36,1.05,PT,1628233894
381,Tartagal,-22.5164,-63.8013,56.79,47,0,2.42,AR,1628233894
382,Valverde del Camino,37.5751,-6.7543,72.18,51,0,7.16,ES,1628233895
383,Yerbogachën,61.2767,108.0108,78.33,31,100,11.65,RU,1628233895
384,Kathu,7.9178,98.3332,87.62,75,100,18.19,TH,1628233895
385,Sept-Îles,50.2001,-66.3821,57.72,95,75,3.44,CA,1628233729
386,Kutum,14.2,24.6667,80.29,52,99,13.78,SD,1628233896
387,Narsaq,60.9167,-46.05,44.82,92,99,2.3,GL,1628233896
388,Belmonte,-15.8631,-38.8828,73.9,85,94,13.58,BR,1628233897
389,Jizan,17.3333,42.6667,93.13,51,11,7.29,SA,1628233897
390,Shahreza,32.0339,51.8794,83.1,18,4,10.02,IR,1628233897
391,Newala,-10.9431,39.2787,73.81,52,0,6.02,TZ,1628233898
392,Berlevåg,70.8578,29.0864,64.2,72,0,2.3,NO,1628233898
393,Mandalgovi,45.7625,106.2708,82.9,20,100,16.37,MN,1628233898
394,Ust-Maya,60.4167,134.5333,72.66,39,100,10.31,RU,1628233899
395,Mendi,-6.1761,143.6513,57.24,99,98,2.33,PG,1628233899
396,Garoowe,8.4054,48.4845,85.24,38,14,27.6,SO,1628233899
397,Korla,41.7597,86.1469,93.15,16,100,6.2,CN,1628233900
398,Edgewater,28.9889,-80.9023,78.03,85,87,1.99,US,1628233900
399,Lavrentiya,65.5833,-171.0,50.11,93,100,2.77,RU,1628233900
400,Indramayu,-6.3264,108.32,86.49,58,65,14.9,ID,1628233901
401,Vestmannaeyjar,63.4427,-20.2734,54.39,85,43,1.07,IS,1628233901
402,Bellevue,47.6104,-122.2007,69.13,86,90,1.01,US,1628233704
403,Shivrājpur,22.4167,73.65,85.96,65,100,8.86,IN,1628233902
404,Nacala,-14.5428,40.6728,79.92,69,75,8.05,MZ,1628233902
405,Birao,10.2849,22.7882,74.68,91,94,4.43,CF,1628233902
406,Ati,13.2154,18.3353,81.86,69,100,14.9,TD,1628233903
407,Galesong,-5.3166,119.3661,89.62,68,97,9.1,ID,1628233903
408,Apiaí,-24.5094,-48.8425,48.78,97,100,1.9,BR,1628233903
409,Batagay,67.6333,134.6333,66.9,32,0,2.39,RU,1628233904
410,Mahrīz,31.5917,54.4318,90.1,15,44,6.24,IR,1628233904
411,Laas,46.6166,10.7002,62.02,67,29,0.67,IT,1628233904
412,Iguape,-24.7081,-47.5553,63.09,92,100,3.02,BR,1628233905
413,Beringovskiy,63.05,179.3167,50.4,80,100,5.68,RU,1628233905
414,Hambantota,6.1241,81.1185,85.51,65,98,24.05,LK,1628233905
415,Erzin,36.9559,36.2,91.92,48,38,5.53,TR,1628233906
416,San Quintín,30.4833,-115.95,66.83,89,25,3.09,MX,1628233906
417,Vila Franca do Campo,37.7167,-25.4333,72.01,93,65,9.42,PT,1628233906
418,Iralaya,15.0,-83.2333,80.35,84,65,11.52,HN,1628233907
419,Skellefteå,64.7507,20.9528,72.0,44,0,1.99,SE,1628233907
420,Solginskiy,61.05,41.3428,62.58,55,100,4.61,RU,1628233907
421,Rio Rancho,35.2334,-106.6645,79.83,39,1,5.99,US,1628233675
422,Moranbah,-22.0016,148.0466,68.32,28,100,12.48,AU,1628233908
423,Broken Hill,-31.95,141.4333,59.63,44,83,9.24,AU,1628233908
424,Severo-Kuril'sk,50.6789,156.125,55.94,67,3,14.36,RU,1628233909
425,Kongsvinger,60.1905,11.9977,60.48,76,100,3.24,NO,1628233909
426,Warburg,51.5,9.1667,65.32,94,75,8.05,DE,1628233909
427,Morada Nova,-5.1067,-38.3725,74.68,65,7,9.22,BR,1628233898
428,San Vicente,-26.6167,-54.1333,60.44,66,100,5.03,AR,1628233910
429,Tazovsky,67.4667,78.7,71.58,53,85,5.97,RU,1628233910
430,Tuy Hoa,13.0833,109.3,97.14,44,99,12.01,VN,1628233911
431,Vila Velha,-20.3297,-40.2925,62.55,94,75,1.14,BR,1628233911
432,Khandyga,62.6667,135.6,78.21,34,43,6.38,RU,1628233911
433,Aklavik,68.2191,-135.0107,42.76,83,100,16.69,CA,1628233912
434,Abnūb,27.2696,31.1511,98.58,14,0,3.04,EG,1628233912
435,Gao,16.6362,1.637,83.93,58,50,10.02,ML,1628233912
436,Areosa,41.7178,-8.8571,65.25,79,45,2.73,PT,1628233913
437,Taltal,-25.4,-70.4833,57.81,68,12,2.26,CL,1628233913
438,Shimoda,34.6667,138.95,83.1,78,100,11.21,JP,1628233913
439,Letnyaya Stavka,45.4306,43.4472,91.18,25,0,18.59,RU,1628233914
440,Sinnamary,5.3833,-52.95,74.34,92,64,4.59,GF,1628233914
441,Cocentaina,38.7398,-0.4398,80.92,57,0,3.42,ES,1628233914
442,Greeley,40.4233,-104.7091,76.62,56,1,1.01,US,1628233915
443,Lillooet,50.6856,-121.942,68.72,60,100,5.91,CA,1628233915
444,Misratah,32.3754,15.0925,89.46,37,0,3.69,LY,1628233915
445,Zhangye,38.9342,100.4517,93.07,13,11,9.06,CN,1628233916
446,Coquimbo,-29.9533,-71.3436,53.33,87,90,3.44,CL,1628233916
447,Petropavlovsk-Kamchatskiy,53.0452,158.6483,61.39,42,20,15.66,RU,1628233917
448,Olinda,-8.0089,-34.8553,74.93,78,40,10.36,BR,1628233917
449,Houma,29.5958,-90.7195,73.99,92,8,2.62,US,1628233917
450,Roald,62.5833,6.1333,64.0,77,0,3.44,NO,1628233918
451,Lypova Dolyna,50.5643,33.7979,83.41,37,73,11.9,UA,1628233819
452,Berlin,52.5244,13.4105,66.94,84,0,1.14,DE,1628233622
453,Wanaka,-44.7,169.15,43.11,99,47,3.47,NZ,1628233825
454,Comodoro Rivadavia,-45.8667,-67.5,55.26,38,0,14.97,AR,1628233680
455,Bambous Virieux,-20.3428,57.7575,75.22,61,1,13.42,MU,1628233919
456,Lüderitz,-26.6481,15.1594,59.59,57,94,0.85,NA,1628233920
457,Caceres,39.522,-6.3748,61.81,71,43,4.79,ES,1628233920
458,Puerto Escondido,15.85,-97.0667,77.23,84,100,5.1,MX,1628233821
459,Muzhi,65.3667,64.6667,75.78,49,34,8.16,RU,1628233921
460,Kudahuvadhoo,2.6708,72.8944,82.24,75,74,11.18,MV,1628233921
461,Chul'man,56.8479,124.9104,59.5,96,100,1.86,RU,1628233921
462,Timizart,36.8,4.2667,83.73,34,0,1.77,DZ,1628233922
463,Hays,30.0502,-98.0336,76.6,92,18,3.0,US,1628233922
464,Cap Malheureux,-19.9842,57.6142,75.47,56,18,7.0,MU,1628233923
465,Portales,34.1862,-103.3344,70.11,48,0,11.41,US,1628233923
466,Imeni Poliny Osipenko,52.4201,136.4853,56.32,97,100,9.82,RU,1628233923
467,Kota Tinggi,1.7381,103.8999,89.64,67,100,7.36,MY,1628233924
468,General Roca,-39.0333,-67.5833,56.59,43,100,5.95,AR,1628233924
469,Tevaitoa,-16.7833,-151.5,78.66,73,10,6.2,PF,1628233924
470,Coihueco,-36.6167,-71.8333,39.94,88,100,2.3,CL,1628233925
471,Salcedo,12.8105,121.4674,90.9,53,38,13.71,PH,1628233925
472,Lambaréné,-0.7001,10.2406,75.85,79,19,3.91,GA,1628233926
473,Inuvik,68.3499,-133.7218,42.94,82,99,13.73,CA,1628233926
474,Jalu,29.0331,21.5482,93.63,16,0,8.41,LY,1628233926
475,Okhotsk,59.3833,143.3,67.41,52,15,3.67,RU,1628233927
476,Mil'kovo,54.7167,158.6167,55.47,62,71,6.89,RU,1628233927
477,Mareeba,-17.0,145.4333,66.49,60,100,8.23,AU,1628233927
478,Makakilo City,21.3469,-158.0858,79.12,70,1,5.75,US,1628233928
479,Jining,35.405,116.5814,92.16,53,19,3.58,CN,1628233928
480,Hartford,41.7668,-72.7662,66.45,97,20,4.61,US,1628233834
481,Khovd,48.0056,91.6419,73.85,23,94,11.5,MN,1628233929
482,Sokolo,14.7328,-6.1219,79.14,72,100,8.7,ML,1628233929
483,Piaçabuçu,-10.4056,-36.4344,71.28,88,24,8.25,BR,1628233929
484,Udachny,66.4167,112.4,64.2,41,31,23.22,RU,1628233930
485,Kalabo,-14.97,22.6814,66.47,20,0,6.96,ZM,1628233930
486,Andover,51.2083,-1.4825,62.83,89,75,11.01,GB,1628233930
487,Playa Vicente,17.8333,-95.8167,73.0,97,100,4.5,MX,1628233668
488,Tiznit Province,29.5833,-9.5,68.23,76,8,2.26,MA,1628233931
489,Progreso,21.2833,-89.6667,77.11,78,5,10.89,MX,1628233931
490,Santa Isabel Rio Negro,-0.4139,-65.0192,70.27,98,91,2.21,BR,1628233873
491,Juneau,58.3019,-134.4197,60.8,87,75,10.36,US,1628233706
492,Zemen,42.4789,22.7492,79.07,49,2,6.42,BG,1628233932
493,Sémbé,1.6481,14.5806,76.44,76,39,6.29,CG,1628233876
494,Sindor,62.8629,51.8905,58.05,62,100,7.05,RU,1628233932
495,Solnechnyy,50.7214,136.6319,59.81,99,100,3.53,RU,1628233933
496,Kamiiso,41.8167,140.65,83.82,69,20,6.04,JP,1628233933
497,Tilichiki,60.4667,166.1,51.01,76,68,16.31,RU,1628233933
498,Fairfield,41.2668,-73.3162,68.72,91,1,0.0,US,1628233934
499,Moroni,-11.7022,43.2551,77.4,61,0,4.09,KM,1628233934
500,Karasjok,69.4719,25.5112,57.31,65,98,6.8,NO,1628233934
501,Kaitong,44.8135,123.15,85.14,37,7,9.73,CN,1628233935
502,Sungai Raya,0.7,108.9,89.2,55,100,7.83,ID,1628233935
503,Nemuro,43.3236,145.575,69.89,95,87,7.87,JP,1628233935
504,Tuatapere,-46.1333,167.6833,48.81,87,100,3.87,NZ,1628233936
505,Linjiang,41.8069,126.9078,71.2,87,100,0.69,CN,1628233936
506,Lumding,25.7535,93.1732,98.64,45,41,3.38,IN,1628233936
507,The Valley,18.217,-63.0578,82.26,71,36,15.39,AI,1628233855
508,Omboué,-1.5746,9.2618,76.46,80,11,6.8,GA,1628233937
509,Morón,-34.6534,-58.6198,55.98,98,1,5.03,AR,1628233937
510,Araouane,18.9048,-3.5265,85.01,46,24,13.53,ML,1628233938
511,Magnolia,33.2671,-93.2393,73.08,69,100,4.03,US,1628233938
512,Monteagudo,-19.8167,-63.9833,52.75,67,0,2.89,BO,1628233938
513,Balakhninskiy,58.0106,114.2769,61.07,93,100,4.45,RU,1628233939
514,Kavieng,-2.5744,150.7967,83.43,73,97,15.99,PG,1628233939
515,Sabang,5.8933,95.3214,83.37,75,80,22.77,ID,1628233939
516,Binzhou,37.3667,118.0167,91.58,45,0,1.9,CN,1628233940
517,Aksay,47.26,39.87,88.18,32,100,14.0,RU,1628233940
518,Northam,51.0333,-4.2167,62.02,93,39,21.7,GB,1628233940
519,Naze,28.3667,129.4833,80.53,83,67,12.73,JP,1628233941
520,Sur,22.5667,59.5289,96.55,49,12,3.96,OM,1628233941
521,Hastings,50.8552,0.5729,64.2,94,51,24.49,GB,1628233941
522,Nyaunglebin,17.95,96.7333,77.94,91,100,4.21,MM,1628233806
523,Aden,12.7794,45.0367,84.0,70,100,12.35,YE,1628233881
524,Gigmoto,13.7796,124.39,89.47,61,100,15.1,PH,1628233942
525,Benguela,-12.5763,13.4055,72.45,85,5,1.9,AO,1628233942
526,Abonnema,4.7084,6.7931,74.59,89,100,2.3,NG,1628233943
527,Talnakh,69.4865,88.3972,81.3,42,28,2.82,RU,1628233943
528,Salalah,17.0151,54.0924,80.69,89,90,9.22,OM,1628233943
529,Griffith,41.5284,-87.4237,75.88,72,90,3.0,US,1628233944
530,Port Said,31.2565,32.2841,84.0,58,0,5.5,EG,1628233944
531,Novyy Svit,47.8059,38.0211,87.08,32,24,14.27,UA,1628233945
532,Linkou,45.3,130.2833,81.27,52,100,6.55,CN,1628233945
533,Daru,-9.0763,143.2092,78.04,76,28,13.22,PG,1628233945
534,Kiama,-34.6833,150.8667,66.38,54,0,1.99,AU,1628233946
535,Skibbereen,51.55,-9.2667,58.8,80,22,18.1,IE,1628233946
536,Kenai,60.5544,-151.2583,60.03,96,90,10.36,US,1628233667
537,Yatou,37.15,122.3833,80.69,73,23,6.42,CN,1628233947
538,Tezu,27.9167,96.1667,98.31,46,76,3.62,IN,1628233947
539,Sarīla,25.7667,79.6833,90.59,63,100,6.6,IN,1628233947
540,Pingliang,35.5392,106.6861,90.54,19,95,11.5,CN,1628233948
541,Conceição da Barra,-18.5933,-39.7322,65.53,81,9,6.33,BR,1628233948
542,Dandong,40.1292,124.3947,79.18,73,99,4.63,CN,1628233768
543,Azpeitia,43.1825,-2.2669,65.93,89,97,0.38,ES,1628233948
544,Polovinnoye,54.7914,65.9864,85.48,40,18,9.62,RU,1628233949
545,Knyaze-Volkonskoye,48.4642,135.4567,79.14,75,99,2.33,RU,1628233949
546,Yiyang,28.5892,112.3283,90.18,66,99,10.31,CN,1628233949
547,Hanchuan,30.65,113.7667,90.72,67,99,11.18,CN,1628233950
548,Simões,-7.5989,-40.8178,68.31,69,57,16.46,BR,1628233950
549,Farmington,36.7281,-108.2187,70.48,38,1,4.0,US,1628233951
550,Pochutla,15.7432,-96.4661,73.81,87,100,4.7,MX,1628233951
551,Ambunti,-4.2365,142.8448,86.36,68,68,0.58,PG,1628233951
552,Alberton,46.8168,-64.0654,67.28,98,100,12.21,CA,1628233952
553,Rusape,-18.5278,32.1284,65.75,36,0,2.42,ZW,1628233952
554,Clarence Town,-32.5833,151.7833,65.34,52,0,4.74,AU,1628233952
555,Long Xuyen,10.3833,105.4167,89.55,55,100,17.96,VN,1628233953
556,Tena,-0.9833,-77.8167,66.31,86,23,2.95,EC,1628233953
557,Eyl,7.9803,49.8164,86.81,45,27,26.44,SO,1628233953
558,Bundaberg,-24.85,152.35,67.21,57,91,3.0,AU,1628233954
559,Ponta Delgada,37.7333,-25.6667,72.32,94,40,10.36,PT,1628233954
560,Uppsala County,60.0,17.75,65.62,66,0,6.91,SE,1628233954
561,Jacqueville,5.2052,-4.4146,73.31,87,10,5.73,CI,1628233955
562,Zhigansk,66.7697,123.3711,65.91,32,31,0.98,RU,1628233955
